city,Unnamed: 0,lat,long,count
Tokyo,0,35.6897,139.6922,0
Jakarta,1,-6.2146,106.8451,0
Delhi,2,28.66,77.23,0
Mumbai,3,18.9667,72.8333,0
Manila,4,14.6,120.9833,0
Shanghai,5,31.1667,121.4667,0
São Paulo,6,-23.5504,-46.6339,0
Seoul,7,37.56,126.99,0
Mexico City,8,19.4333,-99.1333,0
Guangzhou,9,23.1288,113.259,0
Beijing,10,39.905,116.3914,0
Cairo,11,30.0561,31.2394,0
New York,12,40.6943,-73.9249,0
Kolkāta,13,22.5411,88.3378,0
Moscow,14,55.7558,37.6178,0
Bangkok,15,13.75,100.5167,0
Buenos Aires,16,-34.5997,-58.3819,0
Shenzhen,17,22.535,114.054,0
Dhaka,18,23.7289,90.3944,0
Lagos,19,6.45,3.4,0
Istanbul,20,41.01,28.9603,0
Ōsaka,21,34.75,135.4601,0
Karachi,22,24.86,67.01,0
Bangalore,23,12.9699,77.598,0
Tehran,24,35.7,51.4167,0
Kinshasa,25,-4.3233,15.3081,0
Ho Chi Minh City,26,10.8167,106.6333,0
Los Angeles,27,34.1139,-118.4068,0
Rio de Janeiro,28,-22.9083,-43.1964,0
Nanyang,29,32.9987,112.5292,0
Baoding,30,38.8671,115.4845,0
Chennai,31,13.0825,80.275,0
Chengdu,32,30.66,104.0633,0
Lahore,33,31.5497,74.3436,0
Paris,34,48.8566,2.3522,6
London,35,51.5072,-0.1275,0
Linyi,36,35.0606,118.3425,0
Tianjin,37,39.1467,117.2056,0
Shijiazhuang,38,38.0422,114.5086,0
Zhoukou,39,33.625,114.6418,0
Lima,40,-12.05,-77.0333,0
Hyderābād,41,17.3667,78.4667,0
Handan,42,36.6116,114.4894,0
Bogotá,43,4.6126,-74.0705,0
Weifang,44,36.7167,119.1,0
Nagoya,45,35.1167,136.9333,0
Wuhan,46,30.5872,114.2881,0
Heze,47,35.2333,115.4333,0
Ganzhou,48,25.8292,114.9336,0
Tongshan,49,34.261,117.1859,0
Chicago,50,41.8373,-87.6862,0
Luanda,51,-8.8383,13.2344,0
Changsha,52,28.1987,112.9709,0
Fuyang,53,32.8986,115.8045,0
Kuala Lumpur,54,3.1478,101.6953,0
Jining,55,35.4,116.5667,0
Dongguan,56,23.0475,113.7493,0
Jinan,57,36.6667,116.9833,0
Foshan,58,23.0292,113.1056,0
Hanoi,59,21.0245,105.8412,0
Pune,60,18.5196,73.8553,0
Chongqing,61,29.5628,106.5528,0
Changchun,62,43.9,125.2,0
Zhumadian,63,32.9773,114.0253,0
Ningbo,64,29.875,121.5492,0
Cangzhou,65,38.3037,116.8452,0
Nanjing,66,32.05,118.7667,0
Hefei,67,31.8639,117.2808,0
Ahmedabad,68,23.03,72.58,0
Hong Kong,69,22.305,114.185,0
Zhanjiang,70,21.1967,110.4031,0
Shaoyang,71,27.2418,111.4725,0
Hengyang,72,26.8968,112.5857,0
Khartoum,73,15.6031,32.5265,0
Nantong,74,31.9829,120.8873,0
Yancheng,75,33.3936,120.1339,0
Nanning,76,22.8192,108.315,0
Xi’an,77,34.2667,108.9,0
Shenyang,78,41.8039,123.4258,0
Tangshan,79,39.6292,118.1742,0
Santiago,80,-33.45,-70.6667,0
Zhengzhou,81,34.7492,113.6605,0
Shangqiu,82,34.4259,115.6467,0
Yantai,83,37.3997,121.2664,0
Riyadh,84,24.65,46.71,0
Dar es Salaam,85,-6.8,39.2833,0
Xinyang,86,32.1264,114.0672,0
Shangrao,87,28.4419,117.9633,0
Luoyang,88,34.6587,112.4245,0
Bijie,89,27.3019,105.2863,0
Quanzhou,90,24.9139,118.5858,0
Hangzhou,91,30.25,120.1675,0
Miami,92,25.7839,-80.2102,0
Huanggang,93,30.45,114.875,0
Maoming,94,21.6618,110.9178,0
Kunming,95,25.0433,102.7061,0
Nanchong,96,30.7991,106.0784,0
Zunyi,97,27.705,106.9336,0
Jieyang,98,23.5533,116.3649,0
Lu’an,99,31.7542,116.5078,0
Yichun,100,27.8041,114.383,0
Madrid,101,40.4167,-3.7167,0
Changde,102,29.0397,111.6839,0
Taizhou,103,28.6583,121.4221,0
Liaocheng,104,36.45,115.9833,0
Qujing,105,25.5102,103.8029,0
Sūrat,106,21.17,72.83,0
Baghdad,107,33.35,44.4167,0
Qingdao,108,36.1167,120.4,0
Singapore,109,1.3,103.8,0
Dallas,110,32.7936,-96.7662,0
Dazhou,111,31.2152,107.4947,0
Suzhou,112,33.6333,116.9683,0
Xiangyang,113,32.0654,112.1531,0
Philadelphia,114,40.0077,-75.1339,0
Giza,115,29.987,31.2118,0
Nairobi,116,-1.2864,36.8172,0
Nangandao,117,35.2992,113.8851,0
Ankara,118,39.93,32.85,0
Tai’an,119,36.2001,117.0809,0
Yulin,120,22.6293,110.1507,0
Dezhou,121,37.4513,116.3105,0
Houston,122,29.7863,-95.3889,0
Atlanta,123,33.7627,-84.4224,0
Yongzhou,124,26.4515,111.5953,0
Rangoon,125,16.8,96.15,0
Toronto,126,43.7417,-79.3733,0
Suihua,127,46.6384,126.9808,0
Washington,128,38.9047,-77.0163,0
Qiqihar,129,47.3398,123.9512,0
Jinhua,130,29.1046,119.6494,0
Saint Petersburg,131,59.95,30.3167,0
Shantou,132,23.3735,116.6941,0
Sydney,133,-33.865,151.2094,0
Weinan,134,34.4996,109.4684,0
Suqian,135,33.9331,118.2831,0
Guadalajara,136,20.6767,-103.3475,0
Suzhou,137,31.304,120.6164,0
Fuzhou,138,26.0769,119.2917,0
Zhaotong,139,27.3328,103.7144,0
Pudong,140,31.2231,121.5397,0
Belo Horizonte,141,-19.9281,-43.9419,0
Zhangzhou,142,24.5093,117.6612,0
Bozhou,143,33.8626,115.7742,0
Melbourne,144,-37.8136,144.9631,2
Nanchang,145,28.6842,115.8872,0
Xianyang,146,34.35,108.7167,0
Taizhou,147,32.4831,119.9,0
Surabaya,148,-7.2458,112.7378,0
Abidjan,149,5.3364,-4.0267,0
Huaihua,150,27.5494,109.9592,0
Ji’an,151,27.1172,114.9793,0
Mianyang,152,31.4669,104.7385,0
Xiaoganzhan,153,30.9273,113.911,0
Shaoxing,154,30.0,120.5833,0
Alexandria,155,31.2,29.9167,0
Yuncheng,156,35.0304,110.998,0
Pingdingshan,157,33.735,113.2999,0
Huizhou,158,23.1115,114.4152,0
Huai’an,159,33.5,119.1331,0
Xinpu,160,34.5906,119.1801,0
Chenzhou,161,25.7989,113.0267,0
Guilin,162,25.2667,110.2833,0
Jiujiang,163,29.7048,116.0021,0
Anqing,164,30.5,117.0333,0
Boston,165,42.3188,-71.0846,0
Huanglongsi,166,34.7936,114.3403,0
Jiangmen,167,22.5833,113.0833,0
Changzhou,168,31.8122,119.9692,0
Barcelona,169,41.3825,2.1769,0
Wuxi,170,31.5667,120.2833,0
Zibo,171,36.7831,118.0497,0
Jiaxing,172,30.7522,120.75,0
Dalian,173,38.9,121.6,0
Hengshui,174,37.7348,115.686,0
Harbin,175,45.75,126.6333,0
Yangzhou,176,32.3912,119.4363,0
Yibin,177,28.7596,104.64,0
Johannesburg,178,-26.2044,28.0416,0
Yiyang,179,28.5833,112.3333,0
Meizhou,180,24.2998,116.1191,0
Chifeng,181,42.2663,118.9223,0
Casablanca,182,33.5992,-7.62,0
Guiyang,183,26.5794,106.7078,0
Langfang,184,39.5196,116.7006,0
Zhangjiakou,185,40.8108,114.8811,0
İzmir,186,38.4127,27.1384,0
Linfen,187,36.0812,111.5087,0
Wenzhou,188,27.9991,120.6561,0
Monterrey,189,25.6667,-100.3,0
Luzhou,190,28.8918,105.4409,0
Jiangguanchi,191,34.0244,113.8201,0
Neijiang,192,29.5872,105.0635,0
Phoenix,193,33.5722,-112.0891,0
Yanjiang,194,30.1256,104.6397,0
Zhaoqing,195,23.05,112.4667,0
Xiaoxita,196,30.7083,111.2803,0
Guigang,197,23.0961,109.6092,0
Xiamen,198,24.4797,118.0819,0
Chuzhou,199,32.3062,118.3115,0
Fuzhou,200,27.9814,116.3577,0
Zhuzhou,201,27.8407,113.1469,0
Amman,202,31.95,35.9333,0
Jeddah,203,21.5428,39.1728,0
Loudi,204,27.7378,111.9974,0
Deyang,205,31.1289,104.395,0
Qingyuan,206,23.6842,113.0507,0
Wuhu,207,31.334,118.3622,0
Hechi,208,23.0965,109.6091,0
Seattle,209,47.6211,-122.3244,0
Binzhou,210,37.3806,118.0125,0
Yokohama,211,35.4333,139.6333,0
Liuzhou,212,24.3264,109.4281,0
Baojishi,213,34.3609,107.1751,0
Guang’an,214,30.4673,106.6336,0
Hanzhong,215,33.0794,107.026,0
Kabul,216,34.5328,69.1658,0
Zaozhuang,217,34.8667,117.55,0
Berlin,218,52.5167,13.3833,0
Anshan,219,41.1066,122.9895,0
Lanzhou,220,36.0617,103.8318,0
Chengde,221,40.9739,117.9322,0
San Francisco,222,37.7562,-122.443,0
Puyang,223,35.7639,115.03,0
Suining,224,30.5098,105.5737,0
Jiaozuo,225,35.229,113.2304,0
Bengbu,226,32.9354,117.3531,0
Montréal,227,45.5089,-73.5617,0
Detroit,228,42.3834,-83.1024,0
Baicheng,229,23.901,106.6194,0
Busan,230,35.1,129.0403,0
Algiers,231,36.7764,3.0586,0
Qincheng,232,34.5809,105.7311,0
Taiyuan,233,37.8733,112.5425,0
Shiyan,234,32.6351,110.7755,0
Lucknow,235,26.847,80.947,0
Chaoyang,236,41.5757,120.4486,0
Hechi,237,24.6928,108.085,0
Leshan,238,29.5854,103.7575,0
Yulinshi,239,38.2655,109.7388,0
Siping,240,43.1715,124.3644,0
Zhongshan,241,22.5333,113.35,0
Changzhi,242,36.1953,113.097,0
San Diego,243,32.8312,-117.1225,0
Faisalabad,244,31.418,73.079,0
Santa Cruz,245,-17.7892,-63.1975,0
Qinhuangdao,246,39.9398,119.5881,0
Bazhou,247,31.8576,106.7559,0
Zhenjiang,248,32.2109,119.4551,0
Ürümqi,249,43.8225,87.6125,0
Tongliao,250,43.6172,122.264,0
Heyuan,251,23.7503,114.6923,0
Tongren,252,27.7233,109.1885,0
Qinzhou,253,21.95,108.6167,0
Jaipur,254,26.9167,75.8667,0
Xinzhou,255,38.4178,112.7233,0
Addis Ababa,256,9.0272,38.7369,0
Meishan,257,30.0575,103.8381,0
Brasília,258,-15.7939,-47.8828,0
Mashhad,259,36.3069,59.6042,0
Jinzhou,260,41.1144,121.1292,0
Tieling,261,42.2841,123.8365,0
Shaoguan,262,24.8011,113.5927,0
Kuwait City,263,29.375,47.98,0
Shanwei,264,22.7664,115.3331,0
Minneapolis,265,44.9635,-93.2678,0
Kyiv,266,50.45,30.5236,3
Sanaa,267,15.35,44.2,0
Quezon City,268,14.6333,121.0333,0
Dingxi,269,35.5806,104.6263,0
Incheon,270,37.4639,126.6486,0
Bursa,271,40.1833,29.0667,0
Ningde,272,26.6667,119.5167,0
Tampa,273,27.9942,-82.4451,0
Daqing,274,46.5979,125.008,0
Birmingham,275,52.48,-1.9025,0
Putian,276,25.4394,119.0103,0
Huzhou,277,30.8695,120.0958,0
Salvador,278,-12.9708,-38.5108,0
Wuzhou,279,23.4833,111.3167,0
Xiangtan,280,27.8431,112.9228,0
Denver,281,39.7621,-104.8759,0
Rome,282,41.8931,12.4828,0
La Paz,283,-16.4942,-68.1475,0
Pyongyang,284,39.03,125.73,0
Kano,285,12.0,8.5167,0
Taichung,286,24.15,120.6667,0
Omdurman,287,15.6835,32.4629,0
Zigong,288,29.3498,104.7645,0
Mudanjiang,289,44.5861,129.5997,0
Huludao,290,40.7094,120.8378,0
Kaohsiung,291,22.6167,120.3,0
Guayaquil,292,-2.1833,-79.8833,0
Rizhao,293,35.4164,119.4331,0
Manchester,294,53.4794,-2.2453,0
Cawnpore,295,26.4725,80.3311,0
Baotou,296,40.6562,109.8345,0
Taipei,297,25.0478,121.5319,0
Nanping,298,26.6448,118.1728,0
Chaozhou,299,23.67,116.63,0
Longyan,300,25.0881,117.0244,0
Ibadan,301,7.3964,3.9167,0
Hohhot,302,40.8151,111.6629,0
Antananarivo,303,-18.9386,47.5214,0
Longba,304,33.535,105.349,0
Weihai,305,37.5,122.1,0
Chattogram,306,22.335,91.8325,0
Santo Domingo,307,18.4764,-69.8933,0
Xuanzhou,308,30.9475,118.7518,0
Sanming,309,26.2658,117.6302,0
Brooklyn,310,40.6501,-73.9496,0
Yangjiang,311,21.8556,111.9627,0
Medellín,312,6.2447,-75.5748,0
Yunfu,313,22.9242,112.0353,0
Brisbane,314,-27.4678,153.0281,0
Baoshan,315,25.1211,99.169,0
Dubai,316,25.2697,55.3094,0
Luohe,317,33.583,114.0109,0
Qinbaling,318,35.7278,107.64,0
Mirzāpur,319,25.15,82.58,0
Guangyuan,320,32.4353,105.8398,0
Cali,321,3.44,-76.5197,0
Huangshi,322,30.2018,115.0326,0
Daegu,323,35.8667,128.6,0
Fortaleza,324,-3.7275,-38.5275,0
Guatemala City,325,14.6099,-90.5252,0
Yaoundé,326,3.8578,11.5181,0
Douala,327,4.05,9.7,0
Jilin,328,43.85,126.55,0
Lianshan,329,40.7503,120.83,0
Lincang,330,23.8864,100.0871,0
Antalya,331,36.9081,30.6956,0
Tashkent,332,41.3,69.2667,0
Bandung,333,-6.95,107.5667,0
Nāgpur,334,21.1539,79.0831,0
Huainan,335,32.4831,117.0164,0
Dandong,336,40.1167,124.3833,0
Shangzhou,337,33.868,109.9244,0
Bekasi,338,-6.2333,107.0,0
Ghāziābād,339,28.6667,77.4167,0
Tijuana,340,32.525,-117.0333,0
Jiamusi,341,46.8081,130.3653,0
Accra,342,5.6037,-0.187,0
Yuxi,343,24.3495,102.5432,0
Anshun,344,26.2456,105.934,0
Vancouver,345,49.25,-123.1,0
Tangerang,346,-6.1783,106.6319,0
Konya,347,37.8714,32.4847,0
Queens,348,40.7498,-73.7976,0
Yingkou,349,40.6653,122.2297,0
Adana,350,37.0,35.325,0
Medan,351,3.6667,98.6667,0
Sanmenxia,352,34.7736,111.195,0
Indore,353,22.7206,75.8472,0
Ma’anshan,354,31.7135,118.3605,0
Pingliang,355,35.5412,106.6819,0
Quzhou,356,28.9545,118.8763,0
Baku,357,40.3667,49.8352,0
Gaoping,358,30.7804,106.13,0
Huaibei,359,33.9562,116.789,0
Xining,360,36.6239,101.7787,0
Harare,361,-17.8292,31.0522,0
Yan’an,362,36.5952,109.4863,0
Havana,363,23.1367,-82.3589,0
Phnom Penh,364,11.5696,104.921,0
Fukuoka,365,33.6,130.4167,0
Mogadishu,366,2.0408,45.3425,0
Jincheng,367,35.4906,112.8483,0
Puning,368,23.2993,116.1586,0
Lishui,369,28.45,119.9167,0
Qingyang,370,24.8141,118.5792,0
Riverside,371,33.9381,-117.3948,0
Baltimore,372,39.3051,-76.6144,0
Haiphong,373,20.8,106.6667,0
Las Vegas,374,36.2333,-115.2654,0
Laibin,375,23.7333,109.2333,0
Rawalpindi,376,33.6007,73.0679,0
Kumasi,377,6.6833,-1.6167,0
Portland,378,45.5372,-122.65,0
Vadodara,379,22.3,73.2,0
Perth,380,-31.9522,115.8589,0
San Antonio,381,29.4658,-98.5253,0
Vishākhapatnam,382,17.7333,83.3167,0
Gujranwala,383,32.15,74.1833,0
Gaziantep,384,37.0667,37.3833,0
Fushun,385,41.8708,123.8917,0
St. Louis,386,38.6358,-90.2451,0
Bamako,387,12.6458,-7.9922,0
Quito,388,-0.2186,-78.5097,0
Minsk,389,53.9022,27.5618,0
Pingxiang,390,27.6333,113.85,0
Chongzuo,391,22.4167,107.3667,0
Şanlıurfa,392,37.1583,38.7917,0
Kananga,393,-5.897,22.4488,0
Peshawar,394,34.0,71.5,0
Sapporo,395,43.0621,141.3544,0
Hezhou,396,24.4164,111.5478,0
Jixi,397,45.2937,130.965,0
Caracas,398,10.5,-66.9333,0
Fuxin,399,42.0127,121.6486,0
Aleppo,400,36.2,37.15,0
Almaty,401,43.25,76.9,0
Dayr az Zawr,402,35.3333,40.15,0
Vienna,403,48.2083,16.3731,0
Leeds,404,53.7997,-1.5492,0
Sacramento,405,38.5667,-121.4683,0
Blantyre,406,-15.7861,35.0058,0
Tainan,407,22.9833,120.1833,0
Zhuhai,408,22.2769,113.5678,0
Bucharest,409,44.4,26.0833,0
Wuwei,410,37.9278,102.6329,0
Bhopāl,411,23.25,77.4167,0
Curitiba,412,-25.4297,-49.2719,0
Multan,413,30.1978,71.4711,0
Xiping,414,40.08,113.3,0
Asunción,415,-25.3,-57.6333,0
Saidu Sharif,416,34.75,72.3572,0
Hamburg,417,53.55,10.0,0
Meru,418,0.05,37.65,0
Brazzaville,419,-4.2667,15.2833,0
Orlando,420,28.4772,-81.3369,0
Mersin,421,36.8,34.6167,0
Kyōto,422,35.0111,135.7669,0
Manaus,423,-3.1,-60.0167,0
Liaoyang,424,41.2643,123.1772,0
Baiyin,425,36.5448,104.1766,0
San Jose,426,37.3019,-121.8486,0
Warsaw,427,52.2167,21.0333,0
Shengli,428,37.45,118.4667,0
Lubumbashi,429,-11.6697,27.4581,0
Haikou,430,20.02,110.32,0
Damascus,431,33.5131,36.2919,0
Shuyangzha,432,34.1299,118.7734,0
Brussels,433,50.8333,4.3333,0
Eşfahān,434,32.6447,51.6675,0
Budapest,435,47.4983,19.0408,0
Heihe,436,50.2458,127.4886,0
Lusaka,437,-15.4167,28.2833,0
Hyderabad City,438,25.3792,68.3683,0
Diyarbakır,439,37.9108,40.2367,0
Chinchvad,440,18.6278,73.8131,0
Shuozhou,441,39.3408,112.4292,0
Cleveland,442,41.4767,-81.6804,0
Pittsburgh,443,40.4396,-79.9762,0
Patna,444,25.61,85.1414,0
Mosul,445,36.3667,43.1167,0
Austin,446,30.3004,-97.7522,0
Sanzhou,447,30.82,108.4,0
Mecca,448,21.4225,39.8261,0
Conakry,449,9.5092,-13.7122,0
Kampala,450,0.3136,32.5811,0
Ecatepec,451,19.6097,-99.06,0
Cincinnati,452,39.1413,-84.5061,0
Makassar,453,-5.1331,119.4136,0
Yushan,454,31.3867,120.9766,0
Ludhiāna,455,30.9083,75.8486,0
Newcastle,456,55.0077,-1.6578,0
Depok,457,-6.394,106.8225,0
Zhongli,458,24.965,121.2168,0
Kansas City,459,39.1239,-94.5541,0
Ouagadougou,460,12.3572,-1.5353,0
Davao,461,7.0667,125.6,0
Manhattan,462,40.7834,-73.9662,0
Semarang,463,-6.9667,110.4167,0
Yinchuan,464,38.4795,106.2254,0
Caloocan City,465,14.65,120.9667,0
Novosibirsk,466,55.0333,82.9167,0
Chengtangcun,467,35.0833,117.15,0
Āgra,468,27.18,78.02,0
Karaj,469,35.8327,50.9915,0
Indianapolis,470,39.7771,-86.1458,0
Jingdezhen,471,29.2942,117.2036,0
Puebla,472,19.0333,-98.1833,0
Kalyān,473,19.2502,73.1602,0
Madurai,474,9.9197,78.1194,0
Benxi,475,41.292,123.761,0
Jamshedpur,476,22.8,86.1833,0
Recife,477,-8.0539,-34.8808,0
Columbus,478,39.9862,-82.985,0
Tabrīz,479,38.0833,46.2833,0
Maracaibo,480,10.6333,-71.6333,0
Zhangjiajie,481,29.1255,110.4844,0
Beihai,482,21.4667,109.1,0
Shuangyashan,483,46.6388,131.1545,0
Kōbe,484,34.6913,135.183,0
Charlotte,485,35.208,-80.8304,0
Yucheng,486,29.9888,103.0007,0
Changshu,487,31.65,120.7333,0
Lianjiang,488,21.6146,110.2794,0
Ximeicun,489,24.9633,118.3811,0
Jianguang,490,28.1958,115.7833,0
Madīnat as Sādis min Uktūbar,491,29.9361,30.9269,0
Xushan,492,30.1697,121.2665,0
Belém,493,-1.4558,-48.5039,0
Guiping,494,23.4,110.0833,0
Leizhou,495,20.9147,110.0806,0
Gwangju,496,35.1667,126.9167,0
Nāsik,497,20.0,73.7833,0
Porto Alegre,498,-30.0328,-51.23,0
Valencia,499,10.1667,-68.0,0
Onitsha,500,6.1667,6.7833,0
Virginia Beach,501,36.7335,-76.0435,0
Daejeon,502,36.351,127.385,0
Munich,503,48.1372,11.5755,0
Auckland,504,-36.85,174.7833,0
Yekaterinburg,505,56.8356,60.6128,0
Huangshan,506,29.7132,118.3151,0
Huazhou,507,32.6889,112.0447,0
Shīrāz,508,29.61,52.5425,0
Pizhou,509,34.3422,118.0097,0
Palembang,510,-2.9833,104.7644,0
León de los Aldama,511,21.1167,-101.6833,0
El Kelaa des Srarhna,512,32.05,-7.4,0
Kharkiv,513,50.0,36.2292,0
Kawanakajima,514,35.53,139.705,0
Yangshe,515,31.8775,120.5512,0
Chizhou,516,30.6583,117.4849,0
Guyuan,517,36.008,106.2782,0
Rui’an,518,27.778,120.6526,0
Birstall,519,52.6736,-1.12,0
Muscat,520,23.6139,58.5922,0
Hebi,521,35.7497,114.2887,0
Bronx,522,40.8501,-73.8662,0
Gaozhou,523,21.9135,110.8481,0
The Hague,524,52.0767,4.2986,0
Owerri,525,5.4833,7.0333,0
Sharjah,526,25.3575,55.3919,0
Farīdābād,527,28.4333,77.3167,0
Ulaanbaatar,528,47.9203,106.9172,0
Goiânia,529,-16.6806,-49.2564,0
Kayseri,530,38.7333,35.4833,0
Yueqing,531,28.1188,120.9621,0
Belgrade,532,44.8167,20.4667,0
Pingdu,533,36.7833,119.9556,0
Milan,534,45.4669,9.19,0
Aurangābād,535,19.88,75.32,0
Yutan,536,28.3147,112.554,0
Wenling,537,28.3797,121.3718,0
Milwaukee,538,43.0642,-87.9673,0
Sofia,539,42.6979,23.3217,0
Adelaide,540,-34.9289,138.6011,0
Prague,541,50.0833,14.4167,0
Samsun,542,41.2867,36.33,0
Rājkot,543,22.2969,70.7984,0
Liangshi,544,27.2578,111.7351,0
Khulna,545,22.8167,89.55,0
Córdoba,546,-31.4167,-64.1833,0
Guarulhos,547,-23.4667,-46.5333,0
Juárez,548,31.7386,-106.487,0
Saitama,549,35.8617,139.6453,0
Montevideo,550,-34.8667,-56.1667,0
Mbuji-Mayi,551,-6.1209,23.5967,0
Fuqing,552,25.7232,119.3735,0
Xintai,553,35.91,117.78,0
Doha,554,25.3,51.5333,0
Hiroshima,555,34.4,132.45,0
Meerut,556,28.99,77.7,0
Yushu,557,44.8249,126.5451,0
Rongcheng,558,26.2312,104.0966,0
Huazhou,559,21.654,110.6294,0
Yangquan,560,37.8576,113.5762,0
Haicheng,561,40.8523,122.7474,0
Yingtan,562,28.2333,117.0,0
Huaiyin,563,33.58,119.03,0
Wuzhong,564,37.9874,106.1919,0
Barranquilla,565,10.9639,-74.7964,0
Jabalpur,566,23.1667,79.9333,0
Thāne,567,19.18,72.9633,0
Zhangye,568,38.9355,100.4553,0
Rucheng,569,32.3852,120.5634,0
Nizhniy Novgorod,570,56.3269,44.0075,0
Comayagüela,571,14.0833,-87.2167,0
Shaoyang,572,32.9387,119.8404,0
Dhanbād,573,23.7928,86.435,0
Yichun,574,47.7235,128.8893,0
Laiwu,575,36.1833,117.6667,0
Jingling,576,30.6667,113.1667,0
Kazan,577,55.7908,49.1144,0
Dayan,578,26.8808,100.2208,0
Suwon,579,37.2858,127.01,0
Jiangyin,580,31.9087,120.2653,0
Yongcheng,581,33.9317,116.4459,0
Calgary,582,51.05,-114.0667,0
Cần Thơ,583,10.0333,105.7833,0
Abuja,584,9.0556,7.4914,0
Yiwu,585,29.3081,120.0698,0
Mandalay,586,21.9769,96.0869,0
Beidao,587,34.6,105.92,0
Al Başrah,588,30.4889,47.81,0
Shuangshui,589,26.5944,104.8333,0
Vila Velha,590,3.2167,-51.2167,0
Allahābād,591,25.455,81.84,0
Vārānasi,592,25.3189,83.0128,0
Chelyabinsk,593,55.15,61.4,0
Mombasa,594,-4.05,39.6667,0
Providence,595,41.823,-71.4187,0
Qom,596,34.6461,50.8789,0
Maiduguri,597,11.8333,13.15,0
Maputo,598,-25.9153,32.5764,0
Rosario,599,-32.9575,-60.6394,0
Benin City,600,6.3176,5.6145,0
Xinyu,601,27.795,114.9242,0
Pikine,602,14.75,-17.4,0
Ahvāz,603,31.3203,48.6692,0
Dublin,604,53.3497,-6.2603,0
Jacksonville,605,30.3322,-81.6749,0
Medina,606,24.4667,39.6,0
Srīnagar,607,34.0911,74.8061,0
Omsk,608,54.9667,73.3833,0
Cilacap,609,-7.7167,109.017,0
Bandar Lampung,610,-5.4294,105.2625,0
Samara,611,53.1833,50.1167,0
Guankou,612,28.1417,113.625,0
Ulsan,613,35.55,129.3167,0
Dingzhou,614,38.5158,114.9845,0
Campinas,615,-22.9009,-47.0573,0
Lianyuan,616,27.6961,111.6659,0
Rongcheng,617,29.8239,112.9019,0
Kaiyuan,618,36.0656,113.8153,0
Nay Pyi Taw,619,19.7475,96.115,0
Dakar,620,14.7319,-17.4572,0
Zhuji,621,29.7169,120.2314,0
Kigali,622,-1.9536,30.0606,0
Zapopan,623,20.7167,-103.4,0
Leiyang,624,26.4179,112.8457,0
Santiago,625,19.45,-70.7,0
Dadukou,626,26.5849,101.7149,0
Xiantao,627,30.3833,113.4,0
Amritsar,628,31.6167,74.85,0
Callao,629,-12.0611,-77.1333,0
Alīgarh,630,27.88,78.08,0
Yingchuan,631,34.1511,113.4733,0
Tegucigalpa,632,14.0942,-87.2067,0
Ciudad Nezahualcóyotl,633,19.41,-99.03,0
Tripoli,634,32.8752,13.1875,0
Rostov,635,47.2333,39.7167,0
Nezahualcóyotl,636,19.4,-98.9889,0
Bhiwandi,637,19.3,73.0667,0
Zhoushan,638,30.0162,122.0988,0
Tbilisi,639,41.7225,44.7925,0
Ufa,640,54.7333,55.9667,0
Fès,641,34.0433,-5.0033,0
Sevilla,642,37.39,-5.99,0
Mexicali,643,32.6633,-115.4678,0
Biên Hòa,644,10.9277,106.8681,0
Gwalior,645,26.215,78.1931,0
Ankang,646,32.6877,109.0235,0
Ikare,647,7.5304,5.76,0
Huambo,648,-12.7667,15.7333,0
Hegang,649,47.3139,130.2775,0
Salt Lake City,650,40.7777,-111.9306,0
Bhilai,651,21.2167,81.4333,0
Yuyao,652,30.0372,121.1546,0
N’Djamena,653,12.11,15.05,0
Hanchuan,654,30.652,113.8274,0
Gongzhuling,655,43.5036,124.8088,0
Irbid,656,32.5556,35.85,0
Hāora,657,22.59,88.31,0
Cologne,658,50.9422,6.9578,0
Krasnoyarsk,659,56.0167,92.8667,0
Yicheng,660,31.3697,119.8239,0
São Gonçalo,661,-22.8269,-43.0539,0
Nashville,662,36.1715,-86.7843,0
Yerevan,663,40.1814,44.5144,0
Rānchi,664,23.3556,85.3347,0
Nur-Sultan,665,51.1333,71.4333,0
Nouakchott,666,18.0858,-15.9785,0
Vereeniging,667,-26.6736,27.9319,0
Richmond,668,37.5295,-77.4756,0
São Luís,669,-2.53,-44.3028,0
San Pedro Sula,670,15.5,-88.0333,0
Taixing,671,32.1724,120.0142,0
Memphis,672,35.1046,-89.9773,0
Goyang,673,37.6564,126.835,0
Bezwāda,674,16.5167,80.6167,0
Edmonton,675,53.5344,-113.4903,0
Mizhou,676,35.99,119.3801,0
Tunis,677,36.8008,10.18,0
Xishan,678,27.6609,113.4946,0
Ezhou,679,30.3972,114.8842,0
Barquisimeto,680,10.0678,-69.3467,0
Sendai,681,38.2683,140.8694,0
Voronezh,682,51.6717,39.2106,0
Perm,683,58.0139,56.2489,0
Changwon,684,35.2281,128.6811,0
Zhongwei,685,37.5139,105.1884,0
Shouguang,686,36.8833,118.7333,0
Bogor,687,-6.6,106.8,0
Raleigh,688,35.8325,-78.6435,0
Cartagena,689,10.4236,-75.5253,0
Chandīgarh,690,30.7353,76.7911,0
Bishkek,691,42.8667,74.5667,0
Matola,692,-25.9667,32.4667,0
Ogbomoso,693,8.1333,4.25,0
Ashgabat,694,37.95,58.3833,0
Maceió,695,-9.6658,-35.735,0
Niamey,696,13.5086,2.1111,0
Managua,697,12.15,-86.2667,0
Patam,698,1.0678,104.0167,0
Tekirdağ,699,40.9833,27.5167,0
Shubrā al Khaymah,700,30.1286,31.2422,0
Linhai,701,28.8523,121.1409,0
Monrovia,702,6.3106,-10.8047,0
Wafangdian,703,39.6271,121.9972,0
Zhongxiang,704,31.169,112.5853,0
Odesa,705,46.4775,30.7326,1
Shymkent,706,42.3,69.6,0
New Orleans,707,30.0687,-89.9288,0
Thủ Đức,708,10.8199,106.7909,0
Volgograd,709,48.7086,44.5147,0
Port-au-Prince,710,18.5425,-72.3386,0
Islamabad,711,33.6989,73.0369,0
Mysore,712,12.3086,76.6531,0
Xinyi,713,22.3559,110.9369,0
Kathmandu,714,27.7167,85.3667,0
Raipur,715,21.2379,81.6337,0
Nice,716,43.7034,7.2663,0
Arequipa,717,-16.3988,-71.5369,0
Port Harcourt,718,4.75,7.0,0
Louisville,719,38.1663,-85.6485,0
Zaoyang,720,32.1287,112.7581,0
Shuizhai,721,33.4433,114.8994,0
Dnipro,722,48.45,34.9833,0
Kota,723,25.18,75.83,0
Quetta,724,30.192,67.007,0
Abu Dhabi,725,24.4781,54.3686,0
Stockholm,726,59.3294,18.0686,0
Ottawa,727,45.4247,-75.695,0
Asmara,728,15.3333,38.9167,0
Freetown,729,8.4833,-13.2331,0
Jerusalem,730,31.7833,35.2167,0
Bangui,731,4.3732,18.5628,0
Panama City,732,9.0,-79.5,0
Amsterdam,733,52.3667,4.8833,0
Lomé,734,6.1319,1.2228,0
Libreville,735,0.3901,9.4544,0
Zagreb,736,45.8,15.95,0
Dushanbe,737,38.5731,68.7864,0
Lilongwe,738,-13.9833,33.7833,0
Cotonou,739,6.4,2.52,0
Vientiane,740,17.9667,102.6,0
Colombo,741,6.9167,79.8333,0
Pretoria,742,-25.7464,28.1881,1
Winnipeg,743,49.8844,-97.1464,0
Quebec City,744,46.8139,-71.2081,0
Oslo,745,59.9111,10.7528,0
Athens,746,37.9842,23.7281,0
Bujumbura,747,-3.3825,29.3611,0
Helsinki,748,60.1756,24.9342,0
Skopje,749,41.9833,21.4333,0
Chisinau,750,47.0228,28.8353,0
Riga,751,56.9475,24.1069,0
Copenhagen,752,55.6761,12.5689,0
Kingston,753,17.9714,-76.7931,0
Rabat,754,34.0253,-6.8361,0
Vilnius,755,54.6833,25.2833,0
San Salvador,756,13.6989,-89.1914,0
Djibouti,757,11.595,43.1481,0
Lisbon,758,38.7452,-9.1604,0
Kitchener,759,43.4186,-80.4728,0
Tallinn,760,59.4372,24.745,0
Cape Town,761,-33.925,18.425,0
Bratislava,762,48.1447,17.1128,0
Tirana,763,41.33,19.82,0
Canberra,764,-35.2931,149.1269,0
Wellington,765,-41.2889,174.7772,0
Beirut,766,33.8869,35.5131,0
Dodoma,767,-6.1835,35.746,0
Halifax,768,44.6475,-63.5906,0
Bissau,769,11.8592,-15.5956,0
Juba,770,4.85,31.6,0
Port Moresby,771,-9.4789,147.1494,0
Yamoussoukro,772,6.8161,-5.2742,0
Victoria,773,48.4283,-123.3647,0
Maseru,774,-29.31,27.48,0
Nicosia,775,35.1725,33.365,0
Windhoek,776,-22.57,17.0836,0
Porto-Novo,777,6.4833,2.6167,0
Sucre,778,-19.0431,-65.2592,0
San José,779,9.9333,-84.0833,0
Ljubljana,780,46.05,14.5167,0
Sarajevo,781,43.8667,18.4167,0
Nassau,782,25.0667,-77.3333,0
Bloemfontein,783,-29.1,26.2167,0
Fort-de-France,784,14.6104,-61.08,0
Gaborone,785,-24.6569,25.9086,0
Paramaribo,786,5.8667,-55.1667,0
Dili,787,-8.5586,125.5736,0
Pristina,788,42.6667,21.1667,0
Georgetown,789,6.7833,-58.1667,0
Malabo,790,3.7521,8.7737,0
Gibraltar,791,36.1324,-5.3781,0
Saint-Denis,792,-20.8789,55.4481,0
Male,793,4.175,73.5083,0
Podgorica,794,42.4397,19.2661,0
Manama,795,26.225,50.5775,0
Port Louis,796,-20.1667,57.5,0
Willemstad,797,12.108,-68.935,0
New Delhi,798,28.7,77.2,0
Bern,799,46.948,7.4474,0
Papeete,800,-17.5334,-149.5667,0
Reykjavík,801,64.1475,-21.935,0
Praia,802,14.9177,-23.5092,0
Luxembourg,803,49.6106,6.1328,0
Sri Jayewardenepura Kotte,804,6.9,79.9164,0
Bridgetown,805,13.0975,-59.6167,0
Moroni,806,-11.7036,43.2536,0
Thimphu,807,27.4833,89.6333,0
Mbabane,808,-26.3208,31.1617,0
Nouméa,809,-22.2625,166.4443,0
Honiara,810,-9.4333,159.95,0
Suva,811,-18.1333,178.4333,0
Castries,812,14.0167,-60.9833,0
Cayenne,813,4.933,-52.33,0
São Tomé,814,0.3333,6.7333,0
Port-Vila,815,-17.7333,168.3167,0
Hamilton,816,32.2942,-64.7839,0
Bandar Seri Begawan,817,4.9167,114.9167,0
Monaco,818,43.7396,7.4069,0
Gitega,819,-3.4264,29.9306,0
Port of Spain,820,10.6667,-61.5167,0
Apia,821,-13.8333,-171.8333,0
Douglas,822,54.15,-4.4819,0
Oranjestad,823,12.5186,-70.0358,0
Saint Helier,824,49.1833,-2.1167,0
Vaduz,825,47.1415,9.5215,0
Banjul,826,13.4531,-16.5775,0
Mamoudzou,827,-12.7871,45.275,0
Majuro,828,7.0918,171.3802,0
Tarawa,829,1.3382,173.0176,0
George Town,830,19.2866,-81.3744,0
Victoria,831,-4.6236,55.4544,0
Kingstown,832,13.1667,-61.2333,0
Saint John’s,833,17.1211,-61.8447,0
Nuku‘alofa,834,-21.1347,-175.2083,0
Andorra la Vella,835,42.5,1.5,0
Nuuk,836,64.175,-51.7333,0
Belmopan,837,17.25,-88.7675,0
Roseau,838,15.3,-61.3833,0
Basseterre,839,17.2983,-62.7342,0
Tórshavn,840,62.0,-6.7833,0
Pago Pago,841,-14.274,-170.7046,0
Valletta,842,35.8978,14.5125,0
Gaza,843,31.5069,34.456,0
Grand Turk,844,21.4664,-71.136,0
Palikir,845,6.9178,158.185,0
Funafuti,846,-8.5167,179.2167,0
Lobamba,847,-26.4465,31.2064,0
Avarua,848,-21.207,-159.771,0
Saint George’s,849,12.0444,-61.7417,0
San Marino,850,43.932,12.4484,0
Al Quds,851,31.7764,35.2269,0
Capitol Hill,852,15.2137,145.7546,0
Basse-Terre,853,16.0,-61.7167,0
Stanley,854,-51.7,-57.85,0
Vatican City,855,41.9,12.4478,0
Alofi,856,-19.056,-169.921,0
Hagåtña,857,13.4745,144.7504,0
Jamestown,858,-15.9251,-5.7179,0
Marigot,859,18.0706,-63.0847,0
Philipsburg,860,18.0256,-63.0492,0
Road Town,861,18.4167,-64.6167,0
Gustavia,862,17.8958,-62.8508,0
Saint-Pierre,863,46.7811,-56.1764,0
The Valley,864,18.2167,-63.05,0
Mata-Utu,865,-13.2825,-176.1736,0
Kingston,866,-29.0569,167.9617,0
Ngerulmud,867,7.5006,134.6242,0
Tifariti,868,26.0928,-10.6089,0
Tifariti,869,26.0928,-10.6089,0
Longyearbyen,870,78.2167,15.6333,0
Adamstown,871,-25.0667,-130.0833,0
Flying Fish Cove,872,-10.4167,105.7167,0
Bareilly,873,28.364,79.415,0
Quảng Hà,874,16.06,108.25,0
Soacha,875,4.5781,-74.2144,0
Kitaku,876,33.8704,130.82,0
Jodhpur,877,26.2918,73.0168,0
Xingcheng,878,24.1681,115.6669,0
Dongtai,879,32.8534,120.3037,0
Yingcheng,880,24.1878,113.4042,0
Al Manşūrah,881,31.05,31.3833,0
Glasgow,882,55.8609,-4.2514,0
Chiba,883,35.6,140.1,0
Luocheng,884,22.7645,111.5745,0
Danyang,885,31.9948,119.575,0
Natal,886,-6.9838,-60.2699,0
Zhaodong,887,46.0635,125.9773,0
Nada,888,19.5,109.5833,0
Xibeijie,889,39.737,98.5049,0
Kirkuk,890,35.4667,44.4,0
Naples,891,40.8333,14.25,0
Wuchuan,892,21.4283,110.7749,0
Huilong,893,31.8131,121.6574,0
Oklahoma City,894,35.4676,-97.5136,0
Toulouse,895,43.6045,1.444,0
Málaga,896,36.7194,-4.42,0
Denizli,897,37.7731,29.0878,0
Dispur,898,26.15,91.77,0
Coimbatore,899,11.0,76.9667,0
Guwāhāti,900,26.1667,91.7667,0
Sŏngnam,901,37.4386,127.1378,0
Taishan,902,22.2486,112.785,0
Solāpur,903,17.6833,75.9167,0
Tangier,904,35.7767,-5.8039,0
Anqiu,905,36.3619,119.1072,0
Feicheng,906,36.186,116.772,0
Meishan,907,34.1736,112.839,0
Kisangani,908,0.5153,25.1911,0
Khartoum North,909,15.6333,32.6333,0
Aguascalientes,910,21.876,-102.296,0
Marrakech,911,31.6295,-7.9811,0
Donetsk,912,48.0089,37.8042,0
Taihecun,913,45.768,131.0063,0
Trujillo,914,-8.1119,-79.0289,0
Cebu City,915,10.3,123.9,0
Taihe,916,30.8706,105.3784,0
Bridgeport,917,41.1918,-73.1953,0
Antwerp,918,51.2206,4.4003,0
Trichinopoly,919,10.8269,78.6928,0
Xin’an,920,34.3662,118.3369,0
Padang,921,-0.9556,100.3606,0
Qingzhou,922,36.6967,118.4797,0
Buffalo,923,42.9016,-78.8487,0
Lichuan,924,30.2965,108.9378,0
Daye,925,30.1003,114.9699,0
Fort Worth,926,32.7811,-97.3473,0
Hengzhou,927,22.6896,109.2674,0
Campo Grande,928,-20.4686,-54.6222,0
Zhuanghe,929,39.6896,122.9664,0
Hartford,930,41.7661,-72.6834,0
Ad Dammām,931,26.4333,50.1,0
Bucheon,932,37.4989,126.7831,0
Lhasa,933,29.65,91.1,0
Homs,934,34.7333,36.7167,0
Jiaozhou,935,36.2481,119.9625,0
Mérida,936,20.97,-89.62,0
Yangchun,937,22.1717,111.7846,0
Concepción,938,-36.82,-73.0445,0
Dengtalu,939,36.08,114.35,0
Hubli,940,15.36,75.125,0
Abeokuta,941,7.15,3.35,0
Tucson,942,32.1545,-110.8782,0
Krasnodar,943,45.0333,38.9833,0
Natal,944,-5.795,-35.2089,0
Chihuahua,945,28.6353,-106.0889,0
Klang,946,3.0333,101.45,0
Turin,947,45.0667,7.7,0
Jos,948,9.9333,8.8833,0
Laiyang,949,36.9758,120.7136,0
Jalandhar,950,31.3256,75.5792,0
Sale,951,34.05,-6.8167,0
Marseille,952,43.2964,5.37,0
Kaifeng Chengguanzhen,953,34.85,114.35,0
Eskişehir,954,39.7767,30.5206,0
Gaomi,955,36.3833,119.75,0
Teresina,956,-5.0949,-42.8042,0
Ipoh,957,4.6,101.07,0
Hai’an,958,32.532,120.4604,0
Liverpool,959,53.4,-2.9833,0
Zamboanga City,960,6.9167,122.0833,0
Oran,961,35.6969,-0.6331,0
Southampton,962,50.9,-1.4,0
Weichanglu,963,37.1792,119.9333,0
Pekanbaru,964,0.5333,101.45,0
Portsmouth,965,50.8058,-1.0872,0
Leping,966,28.9632,117.1203,0
Kermānshāh,967,34.3167,47.0686,0
Hailun,968,47.4585,126.9632,0
Macheng,969,31.1817,115.0189,0
Ilorin,970,8.5,4.55,0
Omaha,971,41.2627,-96.0522,0
Yuci,972,37.6804,112.73,0
Saratov,973,51.5333,46.0,0
São Bernardo do Campo,974,-23.6939,-46.565,0
Erbil,975,36.1911,44.0094,0
Iguaçu,976,-22.74,-43.47,0
El Paso,977,31.8479,-106.4309,0
Denpasar,978,-8.6667,115.2167,0
Dehui,979,44.5323,125.6965,0
Naucalpan de Juárez,980,19.4753,-99.2378,0
Bhubaneshwar,981,20.2644,85.8281,0
Tongchuan,982,34.9057,108.9422,0
Cheongju,983,36.6372,127.4897,0
Warri,984,5.5167,5.75,0
Pointe-Noire,985,-4.7889,11.8653,0
Rongjiawan,986,29.1409,113.1087,0
Butterworth,987,5.3942,100.3664,0
Bhayandar,988,19.3,72.85,0
San Luis Potosí,989,22.1511,-100.9761,0
Renqiu,990,38.7094,116.1008,0
João Pessoa,991,-7.12,-34.88,0
Toluca,992,19.2925,-99.6569,0
Honolulu,993,21.3294,-157.846,0
Querétaro,994,20.5875,-100.3928,0
Xindi,995,29.8182,113.4653,0
Wu’an,996,36.6941,114.1847,0
Hermosillo,997,29.0989,-110.9542,0
Wutong,998,30.6326,120.5474,0
Taguig City,999,14.5167,121.05,0
Saltillo,1000,25.4333,-101.0,0
Gaoyou,1001,32.7847,119.4432,0
Hejian,1002,38.4451,116.0897,0
Yiyang,1003,26.4103,112.3913,0
Puxi,1004,35.2125,114.735,0
Zijinglu,1005,34.7513,112.9854,0
Trabzon,1006,41.005,39.7225,0
Xiashi,1007,30.5333,120.6833,0
Valencia,1008,39.47,-0.3764,0
Dongyang,1009,29.2785,120.2282,0
McAllen,1010,26.2273,-98.2471,0
Abaeté,1011,-19.1583,-45.4522,0
Palermo,1012,2.8883,-75.4339,0
Johor Bahru,1013,1.4556,103.7611,0
Qingping,1014,34.538,113.3796,0
Morelia,1015,19.7683,-101.1894,0
Niigata,1016,37.9161,139.0364,0
Pasig City,1017,14.575,121.0833,0
Morādābād,1018,28.8418,78.7568,0
Hamamatsu,1019,34.7167,137.7333,0
Culiacán,1020,24.8069,-107.3939,0
Xiangxiang,1021,27.7389,112.5223,0
Malang,1022,-7.98,112.62,0
Xingyi,1023,25.091,104.9011,0
Chaohucun,1024,31.6783,117.7353,0
Fuyang,1025,30.0533,119.9519,0
Antipolo,1026,14.5842,121.1763,0
Lubango,1027,-14.9167,13.5,0
Nottingham,1028,52.95,-1.15,0
Cencheng,1029,22.9297,111.0186,0
Kraków,1030,50.0614,19.9372,0
Erzurum,1031,39.9097,41.2756,0
Hempstead,1032,40.6629,-73.6089,0
Al ‘Ayn,1033,24.2075,55.7447,0
Songzi,1034,30.1772,111.7732,0
Laixi,1035,36.8667,120.5333,0
Bahawalpur,1036,29.3956,71.6722,0
Zhongba,1037,31.7761,104.7406,0
Qingnian,1038,36.8494,115.7061,0
Albuquerque,1039,35.1053,-106.6464,0
Kaduna,1040,10.5231,7.4403,0
Tlalnepantla,1041,19.5367,-99.1947,0
Xinhualu,1042,34.3962,113.7249,0
Guangshui,1043,31.6189,113.8229,0
Frankfurt,1044,50.1136,8.6797,0
Samarinda,1045,-0.5022,117.1536,0
Changhua,1046,24.0667,120.5333,0
Pietermaritzburg,1047,-29.5833,30.4167,0
Hŭngnam,1048,39.8231,127.6232,0
Kolhāpur,1049,16.7,74.2333,0
Ciudad Guayana,1050,8.3596,-62.6517,0
Cúcuta,1051,7.9075,-72.5047,0
Licheng,1052,31.4174,119.4786,0
Thiruvananthapuram,1053,8.5,76.8997,0
Tyumen,1054,57.15,65.5333,0
Cancún,1055,21.1606,-86.8475,0
Zaporizhzhia,1056,47.8378,35.1383,0
Tlajomulco de Zúñiga,1057,20.4736,-103.4431,0
Chengguan,1058,35.4599,113.7975,0
Kumamoto,1059,32.8031,130.7078,0
Nehe,1060,48.48,124.8738,0
Sokoto,1061,13.0622,5.2339,0
Birmingham,1062,33.5277,-86.7987,0
Zunhua,1063,40.1881,117.9593,0
Orūmīyeh,1064,37.5486,45.0675,0
Oyo,1065,7.8333,3.9333,0
Wugang,1066,26.7345,110.6293,0
Shuangqiao,1067,35.0833,112.5833,0
Rennes,1068,48.1147,-1.6794,0
Sizhan,1069,39.0099,106.3694,0
Comodoro Rivadavia,1070,-45.8667,-67.5,0
Langzhong,1071,31.5833,105.972,0
Bristol,1072,51.45,-2.5833,0
Qian’an,1073,40.0059,118.6973,0
Lviv,1074,49.8419,24.0315,0
Zouping,1075,36.8625,117.7424,0
Bremen,1076,53.1153,8.7975,0
Reynosa,1077,26.0922,-98.2778,0
An Najaf,1078,32.029,44.3396,0
Sagamihara,1079,35.5667,139.3667,0
Guli,1080,28.9008,120.0284,0
Sarasota,1081,27.3386,-82.5431,0
Mississauga,1082,43.6,-79.65,0
Lingbao Chengguanzhen,1083,34.5221,110.8786,0
Okayama,1084,34.65,133.9167,0
Anlu,1085,31.2575,113.6783,0
Wusong,1086,30.9333,117.7667,0
Dayton,1087,39.7797,-84.1998,0
Changsha,1088,22.3762,112.6877,0
Enugu,1089,6.4403,7.4942,0
George Town,1090,5.4145,100.3292,0
Jaboatão,1091,-8.1803,-35.0014,0
Santo André,1092,-23.6572,-46.5333,0
Xichang,1093,27.8983,102.2706,0
Soledad,1094,10.92,-74.77,0
Chengxiang,1095,31.4515,121.1043,0
Tolyatti,1096,53.5167,49.4167,0
Sahāranpur,1097,29.964,77.546,0
Warangal,1098,17.9756,79.6011,0
Edogawa,1099,35.6924,139.8757,0
Osasco,1100,-23.5328,-46.7919,0
Dashiqiao,1101,40.6328,122.5021,0
Latakia,1102,35.5236,35.7917,0
Rochester,1103,43.168,-77.6162,0
Fresno,1104,36.7831,-119.7941,0
Banjarmasin,1105,-3.3333,114.5833,0
Salem,1106,11.65,78.1667,0
Uberlândia,1107,-18.9189,-48.2769,0
Shishi,1108,24.7355,118.6434,0
Grenoble,1109,45.1715,5.7224,0
Guadalupe,1110,25.6775,-100.2597,0
Adachi,1111,35.7833,139.8,0
Qianxi,1112,27.0284,106.0327,0
Aracaju,1113,-10.9111,-37.0717,0
Bauchi,1114,10.3158,9.8442,0
Hamilton,1115,43.2567,-79.8692,0
Łódź,1116,51.7769,19.4547,0
Miluo Chengguanzhen,1117,28.8049,113.0745,0
Gaizhou,1118,40.4019,122.3499,0
Mālegaon,1119,20.55,74.55,0
Karbalā’,1120,32.6167,44.0333,0
Leling,1121,37.7333,117.2167,0
São José dos Campos,1122,-23.1789,-45.8869,0
Jianshe,1123,34.2189,113.7693,0
Acapulco de Juárez,1124,16.8636,-99.8825,0
Sheffield,1125,53.3833,-1.4667,0
Shizuoka,1126,34.9756,138.3825,0
Jingcheng,1127,32.0058,120.2547,0
City of Parañaque,1128,14.4667,121.0167,0
Kochi,1129,9.9667,76.2833,0
Allentown,1130,40.5961,-75.4756,0
Tasikmalaya,1131,-7.3333,108.2,0
Macau,1132,22.203,113.545,0
Torreón,1133,25.5394,-103.4486,0
Xinmin,1134,41.9952,122.8224,0
Shanhu,1135,29.5908,120.8176,0
Zhongshu,1136,27.8116,106.4133,0
Xigazê,1137,29.2649,88.8799,0
Gold Coast,1138,-28.0167,153.4,0
Cagayan de Oro,1139,8.4833,124.65,0
Gorakhpur,1140,26.7611,83.3667,0
Pinghu,1141,30.7005,121.0104,0
Palermo,1142,38.1157,13.3613,0
Guankou,1143,30.9933,103.624,0
Tulsa,1144,36.1284,-95.9042,0
Yatou,1145,37.1653,122.4867,0
Songyang,1146,34.4161,113.0424,0
Cape Coral,1147,26.6446,-81.9956,0
Ch’ŏngjin,1148,41.8,129.7831,0
Puyang Chengguanzhen,1149,35.7004,114.98,0
Qionghu,1150,28.8417,112.3595,0
Ribeirão Prêto,1151,-21.1783,-47.8067,0
Dasmariñas,1152,14.3294,120.9367,0
Wenchang,1153,31.054,116.9507,0
Shulan,1154,44.4167,126.95,0
Catia La Mar,1155,10.6,-67.0333,0
Sargodha,1156,32.0836,72.6711,0
Bouaké,1157,7.6833,-5.0331,0
Sialkot City,1158,32.5,74.5333,0
As Sulaymānīyah,1159,35.55,45.4333,0
Hwasu-dong,1160,37.2,126.7667,0
Jeonju,1161,35.8219,127.1489,0
Durango,1162,24.0167,-104.6667,0
Shimoga,1163,13.9304,75.56,0
Ansan,1164,37.3236,126.8219,0
Bulawayo,1165,-20.1667,28.5667,0
Xiping,1166,25.6005,103.8166,0
Sanhe,1167,39.9808,117.0701,0
Guntūr,1168,16.3,80.45,0
Dali,1169,25.7003,100.1564,0
Concord,1170,37.9722,-122.0016,0
Contagem,1171,-19.9319,-44.0539,0
Tiruppūr,1172,11.1075,77.3398,0
Ch’ŏnan,1173,36.8064,127.1522,0
Zaragoza,1174,41.6483,-0.883,0
Düsseldorf,1175,51.2311,6.7724,0
Izhevsk,1176,56.85,53.2167,0
Guixi,1177,28.2861,117.2083,0
Sorocaba,1178,-23.5019,-47.4578,0
Villahermosa,1179,17.9892,-92.9281,0
Petaling Jaya,1180,3.1073,101.6067,0
Tengyue,1181,25.0208,98.4972,0
Wuxue,1182,29.8518,115.5539,0
Utrecht,1183,52.0908,5.1222,0
Kikwit,1184,-5.0333,18.8167,0
Colorado Springs,1185,38.8674,-104.7606,0
Valenzuela,1186,14.7,120.9833,0
Qufu,1187,35.6,116.9833,0
Gaobeidian,1188,39.3257,115.8678,0
Ruiming,1189,25.8833,116.0333,0
Wrocław,1190,51.11,17.0325,0
Rasht,1191,37.2833,49.6,0
Nantes,1192,47.2181,-1.5528,0
Stuttgart,1193,48.7761,9.1775,0
Al Hufūf,1194,25.3608,49.5997,0
Xinshi,1195,31.0236,113.1079,0
Cochabamba,1196,-17.3935,-66.157,0
Barnaul,1197,53.3567,83.7872,0
Tripoli,1198,34.4333,35.8333,0
Jin’e,1199,29.3395,105.2868,0
Rotterdam,1200,51.9225,4.4792,0
Benghazi,1201,32.1167,20.0667,0
Kryvyi Rih,1202,47.9086,33.3433,0
Yanggok,1203,37.6367,127.2142,0
Changping,1204,40.2248,116.1944,0
Raurkela,1205,22.2492,84.8828,0
Ḩalwān,1206,29.8419,31.3342,0
Charleston,1207,32.8153,-79.9628,0
Chimalhuacán,1208,19.4167,-98.9,0
Xinxing,1209,39.8734,124.1453,0
Suohe,1210,34.7879,113.392,0
Mangalore,1211,12.8703,74.8806,0
Zhuangyuan,1212,37.3,120.8333,0
Ulyanovsk,1213,54.3167,48.3667,0
Irkutsk,1214,52.2833,104.3,0
Nānded,1215,19.15,77.3333,0
Bacoor,1216,14.4624,120.9645,0
Pontianak,1217,-0.0206,109.3414,0
Villa Nueva,1218,14.5314,-90.5964,0
Bazhou,1219,39.1235,116.386,0
Springfield,1220,42.1155,-72.5395,0
Turpan,1221,42.95,89.1822,0
Xingtai,1222,37.0659,114.4753,0
Meihekou,1223,42.5279,125.678,0
Cuiabá,1224,-15.5958,-56.0969,0
Jurong,1225,31.9579,119.1595,0
Feira de Santana,1226,-12.2669,-38.9669,0
Khabarovsk,1227,48.4833,135.0667,0
Zhugang,1228,28.1277,121.2288,0
Xinji,1229,37.9423,115.2118,0
Hamhŭng,1230,39.9656,127.4886,0
Serang,1231,-6.12,106.1503,0
Sanya,1232,18.2536,109.5019,0
Buraydah,1233,26.3333,43.9667,0
Ta‘izz,1234,13.5789,44.0219,0
Montpellier,1235,43.6119,3.8772,0
San Miguel de Tucumán,1236,-26.8167,-65.2167,0
Yaroslavl,1237,57.6167,39.85,0
Zhangshu,1238,28.0667,115.5375,0
Grand Rapids,1239,42.962,-85.6562,0
Vladivostok,1240,43.1167,131.9,0
Kuantan,1241,3.8167,103.3333,0
Gothenburg,1242,57.6717,11.981,0
Cuttack,1243,20.45,85.8667,0
Jambi,1244,-1.59,103.61,0
Zhuozhou,1245,39.4887,115.9918,0
Tianchang,1246,32.6853,119.0041,0
Las Piñas City,1247,14.45,120.9833,0
Cimahi,1248,-6.8833,107.5333,0
Tuxtla,1249,16.7528,-93.1167,0
Balikpapan,1250,-1.1489,116.9031,0
Qamdo,1251,31.1375,97.1777,0
Joinvile,1252,-26.3039,-48.8458,0
Durban,1253,-29.8583,31.025,0
General Santos,1254,6.1167,125.1667,0
Chānda,1255,19.95,79.3,0
Kagoshima,1256,31.58,130.5281,0
Leipzig,1257,51.3333,12.3833,0
Al Ḩillah,1258,23.4895,46.7564,0
Makhachkala,1259,42.9833,47.4833,0
Sihui,1260,23.3448,112.6956,0
Mar del Plata,1261,-38.0,-57.55,0
Brampton,1262,43.6833,-79.7667,0
Luocheng,1263,30.9793,104.28,0
Pereira,1264,4.8143,-75.6946,0
Mission Viejo,1265,33.6095,-117.655,0
Dortmund,1266,51.5139,7.4653,0
Chuxiong,1267,25.0461,101.5436,0
Makati City,1268,14.55,121.0333,0
Albany,1269,42.6664,-73.7987,0
Shah Alam,1270,3.0833,101.5333,0
Knoxville,1271,35.9692,-83.9496,0
Essen,1272,51.4508,7.0131,0
Shangzhi,1273,45.2116,127.962,0
Botou,1274,38.074,116.57,0
Bucaramanga,1275,7.1186,-73.1161,0
Anyang,1276,37.3925,126.9269,0
Genoa,1277,44.4072,8.934,0
Kuiju,1278,36.8528,119.3904,0
Tlaquepaque,1279,20.6167,-103.3167,0
Puente Alto,1280,-33.6167,-70.5833,0
Dehra Dūn,1281,30.318,78.029,0
Aţ Ţā’if,1282,21.2667,40.4167,0
San Jose del Monte,1283,14.8139,121.0453,0
Bakersfield,1284,35.3529,-119.0359,0
Wancheng,1285,18.8,110.4,0
Hachiōji,1286,35.6667,139.3167,0
Ogden,1287,41.2278,-111.9682,0
Xiulin,1288,29.7211,112.4037,0
Fu’an,1289,27.1,119.6333,0
Tomsk,1290,56.4886,84.9522,0
Kermān,1291,30.2833,57.0667,0
Kingston upon Hull,1292,53.7444,-0.3325,0
Al Maḩallah al Kubrá,1293,30.9667,31.1667,0
Kumul,1294,42.8322,93.5155,0
Luofeng,1295,37.359,120.396,0
Lingyuan,1296,41.2407,119.3957,0
Baton Rouge,1297,30.4418,-91.131,0
Wencheng,1298,19.6167,110.75,0
Ciudad Bolívar,1299,8.1167,-63.55,0
Durgāpur,1300,23.55,87.32,0
Orenburg,1301,51.7667,55.1,0
Shenzhou,1302,38.0005,115.5541,0
Āsansol,1303,23.6833,86.9667,0
Bacolod,1304,10.6765,122.9509,0
Akron,1305,41.0798,-81.5219,0
New Haven,1306,41.3112,-72.9246,0
Zhenzhou,1307,32.2739,119.1619,0
Surakarta,1308,-7.5667,110.8167,0
Jieshou,1309,33.2605,115.3618,0
Lanxi,1310,29.2167,119.4722,0
Zāhedān,1311,29.4833,60.8667,0
Dangyang,1312,30.8258,111.791,0
Columbia,1313,34.0376,-80.9037,0
Kemerovo,1314,55.3333,86.0667,0
Dresden,1315,51.05,13.74,0
Veracruz,1316,19.1903,-96.1533,0
Bhāvnagar,1317,21.765,72.1369,0
Luanzhou,1318,39.7396,118.6978,0
Novokuznetsk,1319,53.75,87.1167,0
Nellore,1320,14.4333,79.9667,0
Chiclayo,1321,-6.763,-79.8366,0
Palma,1322,39.5667,2.65,0
Al Ḩudaydah,1323,14.8022,42.9511,0
Eslāmshahr,1324,35.5333,51.2,0
Cabinda,1325,-5.5667,12.2,0
Amrāvati,1326,20.9333,77.75,0
Korla,1327,41.7646,86.1527,0
Huanghua,1328,38.371,117.3329,0
Londrina,1329,-23.31,-51.1628,0
Tabūk,1330,28.3838,36.555,0
Xingcheng,1331,40.6189,120.7205,0
Kaiyuan,1332,42.538,124.0371,0
Valledupar,1333,10.4603,-73.2597,0
Fengcheng,1334,40.4543,124.0646,0
Ajmer,1335,26.468,74.639,0
Tinnevelly,1336,8.7289,77.7081,0
Fuding,1337,27.2,120.2,0
Maturín,1338,9.7457,-63.1832,0
An Nāşirīyah,1339,31.0439,46.2575,0
Al Ḩillah,1340,32.4833,44.4333,0
Ibagué,1341,4.4378,-75.2006,0
Hannover,1342,52.3744,9.7386,0
Ryazan,1343,54.6167,39.7167,0
Panshi,1344,42.9392,126.0561,0
Kassala,1345,15.45,36.4,0
Ananindeua,1346,-1.3658,-48.3719,0
Chang’an,1347,29.4761,113.448,0
Shashi,1348,30.32,112.23,0
Poznań,1349,52.4,16.9167,0
Aksu,1350,41.1664,80.25,0
Salta,1351,-24.7883,-65.4106,0
Astrakhan,1352,46.3333,48.0167,0
Mingguang,1353,32.7816,117.9899,0
Naberezhnyye Chelny,1354,55.7,52.3333,0
Bīkaner,1355,28.0181,73.3169,0
Agartala,1356,23.8333,91.2667,0
Xalapa,1357,19.54,-96.9275,0
Ndola,1358,-12.9683,28.6337,0
Hamadān,1359,34.8065,48.5162,0
Villavicencio,1360,4.1425,-73.6294,0
Ailan Mubage,1361,43.9167,81.3167,0
Ensenada,1362,31.8578,-116.6058,0
Lyon,1363,45.76,4.84,0
Bắc Ninh,1364,21.1861,106.0763,0
Ciudad Apodaca,1365,25.7833,-100.1833,0
Santa Teresa del Tuy,1366,10.2333,-66.65,0
Maipú,1367,-33.5167,-70.7667,0
Penza,1368,53.2,45.0,0
Heroica Matamoros,1369,25.8797,-97.5042,0
Port Said,1370,31.25,32.2833,0
Yucheng,1371,36.9329,116.6403,0
Meknès,1372,33.8833,-5.55,0
Nuremberg,1373,49.4539,11.0775,0
Pohang,1374,36.0322,129.365,0
Anda,1375,46.4078,125.3252,0
Jinghong,1376,22.0057,100.7948,0
Utsunomiya,1377,36.55,139.8833,0
Liaoyuan,1378,42.8976,125.1381,0
Mesa,1379,33.4017,-111.718,0
Surrey,1380,49.19,-122.8489,0
Caxias do Sul,1381,-29.1678,-51.1789,0
Heshan,1382,22.7697,112.9578,0
Cuautitlán Izcalli,1383,19.65,-99.25,0
Ujjain,1384,23.1828,75.7772,0
Jiaji,1385,19.2431,110.4642,0
Santa Marta,1386,11.2361,-74.2017,0
Beining,1387,41.5933,121.7932,0
Hải Dương,1388,20.9399,106.3309,0
Carrefour,1389,18.5333,-72.4,0
Homyel’,1390,52.4417,30.9833,0
Leicester,1391,52.6333,-1.1333,0
Yanji,1392,42.9044,129.5067,0
Yicheng,1393,31.7117,112.2551,0
Lipetsk,1394,52.6167,39.6,0
Choloma,1395,15.6333,-88.0,0
Ulhāsnagar,1396,19.2167,73.15,0
Encheng,1397,22.1879,112.3131,0
Muntinlupa City,1398,14.3833,121.05,0
Linghai,1399,41.1676,121.3558,0
Aden,1400,12.8,45.0333,0
Matsuyama,1401,33.8333,132.7667,0
Jhānsi,1402,25.4486,78.5696,0
Kitwe,1403,-12.8208,28.2119,0
Kashgar,1404,39.45,75.9833,0
Aba,1405,5.1167,7.3667,0
Palm Bay,1406,27.955,-80.6627,0
Pingtung,1407,22.6761,120.4942,0
Montería,1408,8.76,-75.8856,0
Samarkand,1409,39.6542,66.9597,0
Davangere,1410,14.4667,75.9167,0
Jammu,1411,32.7333,74.85,0
Mazatlán,1412,23.22,-106.42,0
Murcia,1413,37.9861,-1.1303,0
Ile-Ife,1414,7.4667,4.5667,0
Kirov,1415,58.6,49.65,0
Qaraghandy,1416,49.8,73.1167,0
Belas,1417,-8.9983,13.265,0
Mazatán,1418,29.0167,-110.1333,0
Duisburg,1419,51.4322,6.7611,0
Mykolaiv,1420,46.9667,32.0,0
Provo,1421,40.2457,-111.6457,0
Meicheng,1422,30.6412,116.5689,0
Niterói,1423,-22.8833,-43.1036,0
Matsudo,1424,35.7878,139.9031,0
Sukkur,1425,27.6995,68.8673,0
Rouen,1426,49.4428,1.0886,0
Higashi-ōsaka,1427,34.6794,135.6008,0
Worcester,1428,42.2705,-71.8079,0
Hongjiang,1429,27.1167,109.95,0
Chimbote,1430,-9.0745,-78.5936,0
Ixtapaluca,1431,19.3186,-98.8822,0
Dengtacun,1432,41.42,123.33,0
Zhijiang,1433,30.4271,111.7506,0
Chengjiao,1434,35.4043,114.0593,0
Beipiao,1435,41.802,120.7621,0
Murrieta,1436,33.572,-117.1909,0
Kota Bharu,1437,6.1333,102.25,0
Ciudad López Mateos,1438,19.55,-99.2833,0
Vinh,1439,18.6733,105.6922,0
Tultitlán de Mariano Escobedo,1440,19.645,-99.1694,0
Duyun,1441,26.2672,107.5143,0
Kandahār,1442,31.6078,65.7053,0
Nishinomiya-hama,1443,34.7333,135.3333,0
Larkana,1444,27.56,68.2264,0
Cheboksary,1445,56.1333,47.25,0
Yuanping,1446,38.7299,112.7134,0
Port Sudan,1447,19.6158,37.2164,0
Edinburgh,1448,55.953,-3.189,0
Belgaum,1449,15.8667,74.5,0
Tula,1450,54.2,37.6167,0
Suez,1451,29.9667,32.5333,0
Shahe,1452,36.8622,114.502,0
Yazd,1453,31.8972,54.3678,0
Serra,1454,-20.1289,-40.3078,0
Nazrēt,1455,8.55,39.27,0
Gaoping,1456,35.7911,112.9259,0
Greenville,1457,34.8353,-82.3647,0
Arāk,1458,34.08,49.7,0
San Nicolás de los Garza,1459,25.75,-100.2833,0
Gulbarga,1460,17.3333,76.8333,0
Juiz de Fora,1461,-21.7642,-43.3503,0
Dunhua,1462,43.3667,128.2333,0
Brookhaven,1463,40.8321,-72.9518,0
Az Zarqā’,1464,32.0833,36.1,0
Americana,1465,-22.7392,-47.3314,0
Ardabīl,1466,38.25,48.3,0
Sylhet,1467,24.9,91.8667,0
Wichita,1468,37.6896,-97.3442,0
Toledo,1469,41.6639,-83.5822,0
Kaihua,1470,23.3715,104.2437,0
Caerdydd,1471,51.4833,-3.1833,0
Jāmnagar,1472,22.47,70.07,0
Dhūlia,1473,20.9,74.7833,0
Nampula,1474,-15.1167,39.2667,0
Gaya,1475,24.75,85.0167,0
Florianópolis,1476,-27.5933,-48.553,0
Chiniot,1477,31.7167,72.9833,0
Jiannan,1478,31.3446,104.1994,0
Ōita,1479,33.2333,131.6067,0
Wuhai,1480,39.6708,106.8114,0
Kaliningrad,1481,54.7167,20.5,0
Nangong,1482,37.3606,115.3803,0
Staten Island,1483,40.5834,-74.1496,0
San Juan,1484,-31.5375,-68.5364,0
Vila Velha,1485,-20.3364,-40.2936,0
Macapá,1486,0.033,-51.0653,0
Shekhupura,1487,31.7083,74.0,0
Des Moines,1488,41.5725,-93.6105,0
Piura,1489,-5.2008,-80.6253,0
Jiaojiangcun,1490,28.6804,121.45,0
Laohekou,1491,32.3849,111.6695,0
Beian,1492,48.2395,126.5037,0
Fujin,1493,47.2489,132.0341,0
Celaya,1494,20.5222,-100.8122,0
Xiaoyi,1495,37.1449,111.7718,0
Strasbourg,1496,48.5833,7.7458,0
Lanús,1497,-34.7,-58.4,0
Qingzhen,1498,26.5555,106.4646,0
Jiangshan,1499,28.7412,118.6225,0
Ba‘qūbah,1500,33.7447,44.6436,0
Tamale,1501,9.4075,-0.8533,0
Gdańsk,1502,54.3667,18.6333,0
Manado,1503,1.4931,124.8413,0
Jinchang,1504,38.5168,102.1866,0
Kanazawa,1505,36.6,136.6167,0
Calabar,1506,4.95,8.325,0
Long Beach,1507,33.7981,-118.1675,0
Malatya,1508,38.3554,38.3337,0
Huế,1509,16.4637,107.5908,0
Cranbourne,1510,-38.0996,145.2834,0
Jalgaon,1511,21.0167,75.5667,0
Port St. Lucie,1512,27.2796,-80.3883,0
Mauá,1513,-23.6678,-46.4608,0
Fukuyama,1514,34.4858,133.3625,0
Tel Aviv-Yafo,1515,32.08,34.78,0
Xicheng,1516,23.3629,103.1545,0
Marikina City,1517,14.65,121.1,0
Pyeongtaek,1518,36.9947,127.0889,0
Kurnool,1519,15.8222,78.035,0
City of Calamba,1520,14.2167,121.1667,0
Denton,1521,33.2176,-97.1419,0
Ar Ramādī,1522,33.4258,43.2992,0
Melaka,1523,2.1889,102.2511,0
Jian’ou,1524,27.0387,118.3215,0
Huadian,1525,42.9688,126.7388,0
Taoyuan District,1526,24.9889,121.3111,0
Iloilo,1527,10.7167,122.5667,0
Kota Kinabalu,1528,5.975,116.0725,0
Minzhu,1529,43.7192,127.337,0
Rājshāhi,1530,24.3667,88.6,0
Ţanţā,1531,30.7833,31.0,0
Balashikha,1532,55.8,37.95,0
Udaipur,1533,24.5833,73.6833,0
Kursk,1534,51.7372,36.1872,0
Mariupol,1535,47.1306,37.5639,0
Bukavu,1536,-2.5,28.8667,0
Hsinchu,1537,24.8047,120.9714,0
Barcelona,1538,10.1333,-64.6833,0
Constantine,1539,36.365,6.6147,0
Tanbei,1540,35.0907,112.9317,0
Ado-Ekiti,1541,7.6167,5.2167,0
Batman,1542,37.8833,41.1333,2
Pasay City,1543,14.55,121.0,0
Madison,1544,43.0826,-89.3931,0
Baisha,1545,29.4774,119.2853,0
Betim,1546,-19.9678,-44.1978,0
Bellary,1547,15.15,76.915,0
Santiago de Cuba,1548,20.0283,-75.8206,0
Yongji,1549,34.867,110.4417,0
Reno,1550,39.5497,-119.8483,0
Danjiangkou,1551,32.5408,111.5098,0
Kahramanmaraş,1552,37.5875,36.9453,0
São José do Rio Prêto,1553,-20.82,-49.3789,0
Andijon,1554,40.7,72.35,0
Harrisburg,1555,40.2752,-76.8843,0
Nancy,1556,48.6936,6.1846,0
Puerto Plata,1557,19.7958,-70.6944,0
Machida,1558,35.5486,139.4467,0
Ning’an,1559,44.3429,129.4621,0
Beira,1560,-19.8333,34.85,0
Little Rock,1561,34.7256,-92.3576,0
San Cristóbal,1562,7.7714,-72.2261,0
Zürich,1563,47.3786,8.54,0
Zhangjiakou Shi Xuanhua Qu,1564,40.5944,115.0243,0
Sunch’ŏn,1565,39.4167,125.9333,0
Diadema,1566,-23.6858,-46.6228,0
Guangming,1567,45.3357,122.7765,0
Sāngli,1568,16.8667,74.5667,0
Tuticorin,1569,8.7833,78.1333,0
Herāt,1570,34.3738,62.1792,0
Kupang,1571,-10.1633,123.5778,0
Jeju,1572,33.5097,126.5219,0
Bandar ‘Abbās,1573,27.2,56.25,0
Santos,1574,-23.9608,-46.3339,0
Manizales,1575,5.0661,-75.4847,0
Stavropol,1576,45.05,41.9833,0
Katsina,1577,12.9889,7.6008,0
Yogyakarta,1578,-7.8014,110.3644,0
Calicut,1579,11.25,75.7667,0
Zanjān,1580,36.6667,48.4833,0
Welkom,1581,-27.9831,26.7208,0
Ulan-Ude,1582,51.8272,107.6064,0
Oakland,1583,37.7903,-122.2165,0
Mazār-e Sharīf,1584,36.7,67.1167,0
Kāshān,1585,33.9833,51.4333,0
Kenitra,1586,34.25,-6.5833,0
Uyo,1587,5.05,7.9333,0
Maringá,1588,-23.425,-51.9389,0
Khamīs Mushayţ,1589,18.3,42.7333,0
Masan,1590,35.1833,128.55,0
Cusco,1591,-13.5183,-71.9781,0
Sevastopol,1592,44.6,33.5333,0
Mandaluyong City,1593,14.5833,121.0333,0
Porto Velho,1594,-8.7619,-63.9039,0
Florencio Varela,1595,-34.8167,-58.2833,0
Akola,1596,20.7333,77.0,0
Yan’an Beilu,1597,44.0222,87.2961,0
Agadir,1598,30.4167,-9.5833,0
Mogi das Cruzes,1599,-23.5228,-46.1931,0
Durham,1600,35.9794,-78.9031,10
Likasi,1601,-10.9833,26.7333,0
Buenaventura,1602,3.8772,-77.0267,0
Laval,1603,45.5833,-73.75,0
Toyota,1604,35.0833,137.1567,0
Winston-Salem,1605,36.1029,-80.2611,0
Uijeongbu,1606,37.7486,127.0389,0
Tver,1607,56.8578,35.9219,0
Elazığ,1608,38.6667,39.2167,0
Akure,1609,7.25,5.195,0
Hpa-An,1610,16.8906,97.6333,0
Bonita Springs,1611,26.3559,-81.7861,0
Mishan,1612,45.542,131.8666,0
Hailin,1613,44.5735,129.3825,0
Seremban,1614,2.7297,101.9381,0
Lecheng,1615,25.1307,113.3472,0
Zhengjiatun,1616,43.513,123.5003,0
Luhansk,1617,48.5833,39.3333,0
Pencheng,1618,29.6792,115.6611,0
Magnitogorsk,1619,53.3833,59.0333,0
Takamatsu,1620,34.35,134.05,0
Angeles City,1621,15.1472,120.5847,0
El Obeid,1622,13.1833,30.2167,0
Dalai,1623,45.505,124.2863,0
Xingren,1624,25.4352,105.1907,0
Kolwezi,1625,-10.7167,25.4667,0
Wenlan,1626,23.3689,103.3881,0
Indio,1627,33.7346,-116.2346,0
Palm Coast,1628,29.5392,-81.246,0
Arusha,1629,-3.3667,36.6833,0
Fenyang,1630,37.2652,111.7793,0
Paju,1631,37.8328,126.8169,0
Oujda-Angad,1632,34.69,-1.91,0
Mataram,1633,-8.5833,116.1167,0
Chattanooga,1634,35.0657,-85.2488,0
Lapu-Lapu City,1635,10.3127,123.9488,0
Jhang City,1636,31.2681,72.3181,0
Nagqu,1637,31.4766,92.0569,0
Kisumu,1638,-0.1,34.75,0
Jayapura,1639,-2.5333,140.7167,0
Montes Claros,1640,-16.7322,-43.8636,0
Rio Branco,1641,-9.9781,-67.8117,0
Toyama,1642,36.7,137.22,0
Fangting,1643,31.1282,104.1695,0
Spokane,1644,47.6671,-117.433,0
Sochi,1645,43.5853,39.7203,0
Bhāgalpur,1646,25.25,87.0167,0
Ivanovo,1647,57.0,41.0,0
Osogbo,1648,7.7667,4.5667,0
Imus,1649,14.4297,120.9367,0
Ciudad Obregón,1650,27.4939,-109.9389,0
Türkmenabat,1651,39.1,63.5667,0
Zaria,1652,11.0667,7.7,0
Namangan,1653,40.9953,71.6725,0
Bryansk,1654,53.25,34.3667,0
Taiping,1655,32.0691,108.0351,0
Maracay,1656,10.2469,-67.5958,0
Jiexiu,1657,37.0282,111.9103,0
Mbale,1658,1.0806,34.175,0
Taraz,1659,42.8833,71.3667,0
Asyūţ,1660,27.1869,31.1714,0
Santa Fe,1661,-31.6333,-60.7,0
Campina Grande,1662,-7.2306,-35.8811,0
Nagasaki,1663,32.7833,129.8667,0
Szczecin,1664,53.4247,14.5553,0
Ghulja,1665,43.9,81.35,0
Syracuse,1666,43.0409,-76.1438,0
Carapicuíba,1667,-23.5228,-46.8358,0
Quilon,1668,8.8853,76.5864,0
Jundiaí,1669,-23.1864,-46.8842,0
Gifu,1670,35.4167,136.7667,0
Lancaster,1671,40.0421,-76.3012,0
Eindhoven,1672,51.4408,5.4778,0
Sīkar,1673,27.6119,75.1397,0
Tumkūr,1674,13.33,77.1,0
Jiangjiafan,1675,31.0304,112.1,0
Dera Ghazi Khan,1676,30.05,70.6333,0
Arlington,1677,32.6998,-97.125,0
Miyazaki,1678,31.9167,131.4167,0
Stockton,1679,37.9765,-121.3109,0
Bhātpāra,1680,22.8667,88.4167,0
Sandakan,1681,5.8388,118.1173,0
Hejin,1682,35.5914,110.706,0
Thanh Hóa,1683,19.8075,105.7764,0
Muzaffarnagar,1684,29.4708,77.7033,0
Poughkeepsie,1685,41.6949,-73.921,0
Campos,1686,-21.7523,-41.3304,0
Metz,1687,49.1203,6.1778,0
Nha Trang,1688,12.2495,109.1908,0
Belgorod,1689,50.6,36.6,0
Yola,1690,9.2,12.4833,0
Lobito,1691,-12.3597,13.5308,0
Saurimo,1692,-9.6589,20.3934,0
Olinda,1693,-8.0089,-34.855,0
Bologna,1694,44.4939,11.3428,0
Ad Dīwānīyah,1695,31.9892,44.9247,0
Gujrat,1696,32.5736,74.0789,0
Hancheng,1697,35.4603,110.4292,0
Fuyu,1698,45.1804,124.82,0
Karamay,1699,45.5928,84.8711,0
Kākināda,1700,16.9333,82.2167,0
Augusta,1701,33.3645,-82.0708,0
Bhīlwāra,1702,25.35,74.6333,0
Tieli,1703,46.9804,128.045,0
Cilegon,1704,-6.0027,106.0112,0
Baicheng,1705,45.6148,122.832,0
Nizāmābād,1706,18.6704,78.1,0
Boise,1707,43.6007,-116.2312,0
Tonalá,1708,20.6167,-103.2333,0
Mwanza,1709,-2.5167,32.9,0
Aqtöbe,1710,50.3,57.1667,0
Oxnard,1711,34.1963,-119.1815,0
Tétouan,1712,35.5667,-5.3667,0
Okazaki,1713,34.95,137.1667,0
Cariacica,1714,-20.2639,-40.42,0
Ḩā’il,1715,27.5236,41.7001,0
Las Palmas,1716,28.1272,-15.4314,0
Yidu,1717,30.388,111.4505,0
Lianzhou,1718,24.7868,112.3735,0
Florence,1719,43.7714,11.2542,0
Scranton,1720,41.4044,-75.6649,0
Brno,1721,49.1953,16.6083,0
London,1722,42.9836,-81.2497,0
Modesto,1723,37.6374,-121.0028,0
Kissimmee,1724,28.3042,-81.4164,0
Pasto,1725,1.2136,-77.2811,0
Ichinomiya,1726,35.3039,136.8031,0
Qazvīn,1727,36.2688,50.0041,0
Irapuato,1728,20.6667,-101.35,0
Novi Sad,1729,45.2644,19.8317,0
Shihezi,1730,44.3,86.0333,0
Shache,1731,38.4261,77.25,0
Pānihāti,1732,22.69,88.37,0
Huancayo,1733,-12.0667,-75.2167,0
Aurora,1734,39.7087,-104.7273,0
Malabon,1735,14.6625,120.9567,0
Pétion-Ville,1736,18.5098,-72.2856,0
Sintra,1737,38.7974,-9.3904,0
Parbhani,1738,19.2704,76.76,0
Usulután,1739,13.35,-88.45,0
Youngstown,1740,41.0993,-80.6463,0
Christchurch,1741,-43.5309,172.6365,0
Hatay,1742,36.2,36.15,0
Iquitos,1743,-3.7333,-73.25,0
Sivas,1744,39.75,37.0167,0
Helixi,1745,30.6267,118.9861,0
A Coruña,1746,43.3713,-8.4188,0
Manukau City,1747,-37.0,174.885,0
Stoke-on-Trent,1748,53.0,-2.1833,0
Cumaná,1749,10.45,-64.1667,0
Vinnytsia,1750,49.2372,28.4672,0
Rohtak,1751,28.9,76.5667,0
Lātūr,1752,18.4004,76.57,0
Bello,1753,6.3319,-75.5581,0
Sanandaj,1754,35.3097,46.9989,0
Nuevo Laredo,1755,27.4861,-99.5069,0
Ambon,1756,-3.705,128.17,0
Mandaue City,1757,10.3333,123.9333,0
Keelung,1758,25.1283,121.7419,0
Toyohashi,1759,34.7667,137.3833,0
La Florida,1760,-33.55,-70.5667,0
Varna,1761,43.2114,27.9111,0
Lengshuijiang,1762,27.6858,111.4279,0
Anguo,1763,38.4177,115.3204,0
Rājapālaiyam,1764,9.4204,77.58,0
Rodriguez,1765,14.7167,121.1167,0
Madan,1766,30.3307,48.2797,0
Az Zubayr,1767,30.3892,47.7081,0
Al Qaţīf,1768,26.5196,50.0115,0
Cuernavaca,1769,18.9186,-99.2342,0
Nicolás Romero,1770,19.5833,-99.3667,0
Huichang,1771,34.9136,112.7852,0
Vitsyebsk,1772,55.1833,30.1667,0
Nagano,1773,36.6486,138.1928,0
Bauru,1774,-22.3147,-49.0606,0
Yanjiao,1775,39.9432,116.8036,0
Bochum,1776,51.4833,7.2167,0
Anápolis,1777,-16.3269,-48.9528,0
Coventry,1778,52.4081,-1.5106,0
Zalantun,1779,48.0033,122.7365,0
Tecámac,1780,19.7131,-98.9683,0
Ciudad General Escobedo,1781,25.7933,-100.1583,0
Wŏnsan,1782,39.1475,127.4461,0
Kocaeli,1783,40.7656,29.9406,0
Bengkulu,1784,-3.7956,102.2592,0
Shuanghejiedao,1785,30.3866,106.7756,0
Surgut,1786,61.25,73.4333,0
Bobo-Dioulasso,1787,11.1833,-4.2833,0
Umuahia,1788,5.5333,7.4833,0
Gedaref,1789,14.0333,35.3833,0
Palu,1790,-0.895,119.8594,0
Santa Rosa,1791,14.3167,121.1167,0
Pokhara,1792,28.2097,83.9853,0
Mahilyow,1793,53.9089,30.343,0
Wudalianchi,1794,48.6433,126.1408,0
Sungai Petani,1795,5.65,100.48,0
Nam Định,1796,20.42,106.1683,0
Sinŭiju,1797,40.1,124.4,0
Vitória,1798,-20.3189,-40.3378,0
Hrodna,1799,53.6667,23.8167,0
Vladimir,1800,56.1286,40.4058,2
Bilbao,1801,43.2569,-2.9236,0
São Vicente,1802,-23.9633,-46.3922,0
Cubal,1803,-13.0333,14.2333,0
Yong’an,1804,25.9733,117.3593,0
Itaquaquecetuba,1805,-23.4864,-46.3486,0
Wuppertal,1806,51.2667,7.1833,0
Minatitlán,1807,17.9833,-94.55,0
Nizhniy Tagil,1808,57.9167,59.9667,0
Ponta Grossa,1809,-25.095,-50.1619,0
Hongzhai,1810,35.0476,104.6394,0
Wakayama,1811,34.2333,135.1667,0
Pavlodar,1812,52.3156,76.9564,0
Gimpo,1813,37.6236,126.7142,0
Rahimyar Khan,1814,28.4202,70.2952,0
Nara,1815,34.6833,135.7833,0
Van,1816,38.5019,43.4167,1
Corrientes,1817,-27.4833,-58.8167,0
San Pedro,1818,14.3583,121.0583,0
Neiva,1819,2.9275,-75.2875,0
Arkhangelsk,1820,64.55,40.5333,0
Licheng,1821,24.4935,110.3902,0
Koshigaya,1822,35.8911,139.7908,0
Cabimas,1823,10.4,-71.4333,0
Yakeshi,1824,49.2842,120.7283,0
Baguio City,1825,16.4152,120.5956,0
Ahmadnagar,1826,19.0833,74.7333,0
Fayetteville,1827,36.0713,-94.166,0
Canoas,1828,-29.92,-51.18,0
Holguín,1829,20.8872,-76.2631,0
Qoqon,1830,40.5404,70.94,0
Anaheim,1831,33.839,-117.8572,0
Yingmen,1832,39.83,97.73,0
Piracicaba,1833,-22.725,-47.6489,0
Bydgoszcz,1834,53.1167,18.0,0
Antofagasta,1835,-23.6464,-70.398,0
Khorramābād,1836,33.4667,48.35,0
Rājahmundry,1837,16.9833,81.7833,0
Chita,1838,52.0333,113.5,0
Caruaru,1839,-8.2828,-35.9758,0
Makiivka,1840,48.0556,37.9611,0
Chitungwiza,1841,-18.0,31.1,0
Pensacola,1842,30.4427,-87.1886,0
Victorville,1843,34.5277,-117.3536,0
Tanch’ŏn,1844,40.458,128.911,0
Tokorozawa,1845,35.7994,139.4689,0
Sumqayıt,1846,40.5917,49.6397,0
Kūstī,1847,13.17,32.66,0
Al ‘Amārah,1848,31.8416,47.1512,0
Cuddapah,1849,14.4667,78.8167,0
Simferopol,1850,44.9484,34.1,0
Plovdiv,1851,42.1433,24.7489,0
Tarlac City,1852,15.4802,120.5979,0
Ōtsu,1853,35.0167,135.85,0
Pelotas,1854,-31.7719,-52.3428,0
Lancaster,1855,34.6935,-118.1753,0
Greensboro,1856,36.0956,-79.8269,0
Iligan,1857,8.2333,124.25,0
East London,1858,-33.0153,27.9116,0
Franca,1859,-20.5389,-47.4008,0
Brest,1860,52.0847,23.6569,0
Kaluga,1861,54.5333,36.2667,0
Yeosu,1862,34.7368,127.7458,0
Corpus Christi,1863,27.726,-97.3755,0
Muzaffarpur,1864,26.12,85.3833,0
Lublin,1865,51.2333,22.5667,0
Lianran,1866,24.9211,102.4778,0
Alwar,1867,27.5667,76.6167,0
Baishan,1868,41.9377,126.4179,0
Kawagoe,1869,35.9251,139.4858,0
Farg‘ona,1870,40.3864,71.7864,0
Tamuramachi-moriyama,1871,37.3252,140.4134,0
Brahmapur,1872,19.32,84.8,0
Buôn Ma Thuột,1873,12.6667,108.05,0
Biñan,1874,14.3333,121.0833,0
Semey,1875,50.4111,80.2275,0
Tarsus,1876,36.9167,34.9,0
Alicante,1877,38.3453,-0.4831,0
Randburg,1878,-26.0936,28.0064,0
Tepic,1879,21.5083,-104.8931,0
Jitpur,1880,27.6666,85.3333,0
Kaesŏng,1881,37.964,126.5644,0
Beni,1882,0.5,29.4667,0
Petrolina,1883,-9.3928,-40.5078,0
Chinju,1884,35.1928,128.0847,0
Tangdong,1885,25.9755,113.2302,0
Butuan,1886,8.9534,125.5288,0
Reading,1887,51.4542,-0.9731,0
Uberaba,1888,-19.7478,-47.9319,0
Belfast,1889,54.5964,-5.93,0
Iwaki,1890,37.0333,140.8833,0
Blida,1891,36.4722,2.8333,0
Hangu,1892,39.232,117.777,0
Yingzhong,1893,32.2381,119.8133,0
Viña del Mar,1894,-33.0245,-71.5518,0
Bielefeld,1895,52.0167,8.5333,0
Cuenca,1896,-2.8974,-79.0045,0
Fort Wayne,1897,41.0886,-85.1437,0
Lipa City,1898,13.9411,121.1622,0
Wad Medani,1899,14.4,33.51,0
Ribeirão das Neves,1900,-19.7669,-44.0869,0
Kāmārhāti,1901,22.67,88.37,0
Maebashi,1902,36.3833,139.0667,0
Thessaloníki,1903,40.6403,22.9356,0
Gəncə,1904,40.6828,46.3606,0
Bilāspur,1905,22.15,82.0167,0
Santa Ana,1906,33.7366,-117.8819,0
Mymensingh,1907,24.7504,90.38,0
Al Fayyūm,1908,29.3,30.8333,0
Flint,1909,43.0235,-83.6922,0
Kendari,1910,-3.9675,122.5947,0
Balıkesir,1911,39.6511,27.8842,0
Az Zaqāzīq,1912,30.5667,31.5,0
Thái Nguyên,1913,21.6,105.85,0
Smolensk,1914,54.7828,32.0453,0
Asahikawa,1915,43.7706,142.365,0
Islip,1916,40.7384,-73.1887,0
Wŏnju,1917,37.3417,127.9208,0
Dahūk,1918,36.85,42.9833,0
Batangas,1919,13.75,121.05,0
Mathura,1920,27.4833,77.6833,0
Barishal,1921,22.7,90.3667,0
Bamiantong,1922,44.9164,130.5212,0
Patiāla,1923,30.3204,76.385,0
Cainta,1924,14.5667,121.1167,0
Bonn,1925,50.7339,7.0997,0
São José dos Pinhais,1926,-25.535,-49.2058,0
Vũng Tàu,1927,10.4042,107.1417,0
Markham,1928,43.8767,-79.2633,0
Saugor,1929,23.8504,78.75,0
Malmö,1930,55.5932,13.0214,0
Roodepoort,1931,-26.1625,27.8725,0
Gómez Palacio,1932,25.5611,-103.4983,0
Volzhskiy,1933,48.7833,44.7667,0
Taourirt,1934,34.41,-2.89,0
Bijāpur,1935,16.8244,75.7154,0
Sukabumi,1936,-6.9197,106.9272,0
Fayetteville,1937,35.0846,-78.9776,0
Taytay,1938,14.5692,121.1325,0
Ulanhot,1939,46.0726,122.0719,0
Nakuru,1940,-0.2833,36.0667,0
Yunzhong,1941,39.8143,113.0946,0
Al Fallūjah,1942,33.35,43.7833,0
Kōchi,1943,33.5589,133.5314,0
Boa Vista,1944,2.82,-60.6719,0
Gwangmyeongni,1945,37.4772,126.8664,0
Bari,1946,41.1253,16.8667,0
Pucallpa,1947,-8.3833,-74.55,0
Kuching,1948,1.5397,110.3542,0
Zinder,1949,13.8,8.9833,0
Caucaia,1950,-3.7328,-38.6558,0
Gonder,1951,12.6,37.4667,0
Jackson,1952,32.3163,-90.2124,0
Mekele,1953,13.4969,39.4769,0
Kulti,1954,23.73,86.85,0
Santa Rosa,1955,38.4458,-122.7067,0
Gonaïves,1956,19.4456,-72.6883,0
Lansing,1957,42.7142,-84.5601,0
Naha,1958,26.2122,127.6789,0
Binxian,1959,35.0364,108.0764,0
San Juan,1960,18.4037,-66.0636,0
Lexington,1961,38.0423,-84.4587,0
Hotan,1962,37.1012,79.9327,0
Uíge,1963,-7.6167,15.05,0
Newcastle,1964,-32.9167,151.75,0
Kurgan,1965,55.4408,65.3411,0
Kaiyuan,1966,23.7147,103.2585,0
Temara,1967,33.9234,-6.9076,0
Uruapan,1968,19.4208,-102.0628,0
Camagüey,1969,21.3786,-77.9186,0
Ann Arbor,1970,42.2755,-83.7312,0
San Salvador de Jujuy,1971,-24.1856,-65.2994,0
Timişoara,1972,45.7597,21.23,0
Córdoba,1973,37.8845,-4.7796,0
Al Kūt,1974,32.4907,45.8304,0
Tapachula,1975,14.9,-92.2667,0
Shāhjānpur,1976,27.8804,79.905,0
Cherepovets,1977,59.1333,37.9167,0
San Miguelito,1978,9.05,-79.5,0
Menongue,1979,-14.6585,17.691,0
Poltava,1980,49.5744,34.5686,0
Henderson,1981,36.0133,-115.038,0
Maroua,1982,10.5823,14.3275,0
Kaech’ŏn,1983,39.6986,125.9061,0
Asan,1984,36.35,126.9167,0
Coatzacoalcos,1985,18.15,-94.4333,0
Huntsville,1986,34.6988,-86.6412,0
Öskemen,1987,49.99,82.6149,0
Tampico,1988,22.2553,-97.8686,0
Trichūr,1989,10.52,76.21,0
Cluj-Napoca,1990,46.7667,23.6,0
General Trias,1991,14.3833,120.8833,0
Cirebon,1992,-6.7167,108.5667,0
Boaco,1993,12.4722,-85.6586,0
Cà Mau,1994,9.1833,105.15,0
Cabuyao,1995,14.275,121.125,0
Vologda,1996,59.2167,39.9,0
Saransk,1997,54.1833,45.1833,0
Mobile,1998,30.6783,-88.1162,0
Bor,1999,6.2167,31.55,0
Münster,2000,51.9625,7.6256,0
Barddhamān,2001,23.25,87.85,0
Toshima,2002,35.7333,139.7167,0
Karlsruhe,2003,49.0167,8.4,0
Kasur,2004,31.1167,74.45,0
Yakou,2005,33.2937,113.5203,0
Orël,2006,52.9686,36.0694,0
Safi,2007,32.2833,-9.2333,0
Shahr-e Qods,2008,35.7214,51.1089,0
Vitória da Conquista,2009,-14.8661,-40.8394,0
Ḩamāh,2010,35.1333,36.75,0
Guarujá,2011,-23.9936,-46.2564,0
Catania,2012,37.5027,15.0873,0
Purnea,2013,25.78,87.47,0
Datang,2014,22.9476,113.9326,0
Fort Collins,2015,40.5478,-105.0656,0
Port Elizabeth,2016,-33.9581,25.6,0
Alanya,2017,36.5436,31.9997,0
Asheville,2018,35.5704,-82.5536,0
Santa Clarita,2019,34.4175,-118.4964,0
Gorgān,2020,36.83,54.48,0
Quy Nhơn,2021,13.7696,109.2314,0
Sambalpur,2022,21.4704,83.9701,0
Yokkaichi,2023,34.9667,136.6167,0
Chalco,2024,19.2647,-98.8975,0
Mannheim,2025,49.4878,8.4661,0
Namp’o,2026,38.7333,125.4,0
Shahrīār,2027,35.6597,51.0592,0
Cobán,2028,15.4833,-90.3667,0
Kasugai,2029,35.25,136.9667,0
Sapele,2030,5.8904,5.68,0
Blumenau,2031,-26.9189,-49.0658,0
Sariwŏn,2032,38.5039,125.7589,0
St. Catharines,2033,43.1833,-79.2333,0
Matadi,2034,-5.8167,13.4833,0
Niagara Falls,2035,43.06,-79.1067,0
Fīrozābād,2036,27.15,78.3949,0
San Fernando,2037,15.0333,120.6833,0
St. Paul,2038,44.9477,-93.104,0
Vladikavkaz,2039,43.04,44.6775,0
Yakutsk,2040,62.0272,129.7319,0
Minna,2041,9.6139,6.5569,0
Hisar,2042,29.1489,75.7367,0
Puerto La Cruz,2043,10.2167,-64.6167,0
Podolsk,2044,55.4297,37.5444,0
Ciudad Victoria,2045,23.7333,-99.1333,0
Ciudad del Este,2046,-25.5167,-54.6167,0
Vaughan,2047,43.8333,-79.5,0
Ōakashichō,2048,34.6431,134.9975,0
Pekalongan,2049,-6.8883,109.6753,0
Adıyaman,2050,37.7644,38.2763,0
Vila Nova de Gaia,2051,41.1333,-8.6167,0
Curepipe,2052,-20.3162,57.5166,0
Cabanatuan City,2053,15.4833,120.9667,0
Paulista,2054,-7.9408,-34.8728,0
Oaxaca,2055,17.0833,-96.75,0
Armenia,2056,4.5389,-75.6725,0
Akita,2057,39.7197,140.1025,0
San Bernardo,2058,-33.6,-70.7167,0
Wollongong,2059,-34.4331,150.8831,0
Brest,2060,48.39,-4.49,0
Awka,2061,6.2,7.0667,0
Iksan,2062,35.9439,126.9544,0
Taubaté,2063,-23.0333,-45.55,0
Antioch,2064,37.9789,-121.7958,0
Lakeland,2065,28.0556,-81.9545,0
Sóc Trăng,2066,9.6,105.9719,0
Āwasa,2067,7.05,38.4667,0
Mardan,2068,34.1958,72.0447,0
Popayán,2069,2.4411,-76.6061,0
Praia Grande,2070,-24.0058,-46.4028,0
Qianzhou,2071,28.3185,109.7318,0
Cotabato,2072,7.2167,124.25,0
Valladolid,2073,41.6528,-4.7236,0
Mossoró,2074,-5.1878,-37.3439,0
Coatepeque,2075,14.7,-91.8667,0
Bīdar,2076,17.9229,77.5175,0
Białystok,2077,53.1167,23.1667,0
Mérida,2078,8.5833,-71.1333,0
Murmansk,2079,68.9667,33.0833,0
Ar Raqqah,2080,35.95,39.0167,0
Afyonkarahisar,2081,38.7581,30.5386,0
Vigo,2082,42.2314,-8.7124,0
Jember,2083,-8.1727,113.6873,0
Bahía Blanca,2084,-38.7167,-62.2667,0
İskenderun,2085,36.5804,36.17,0
Al Mubarraz,2086,25.41,49.5808,0
Petrópolis,2087,-22.505,-43.1789,0
Al Kharj,2088,24.1556,47.312,0
Rāmpur,2089,28.8154,79.025,0
Najrān,2090,17.4917,44.1322,0
Chernihiv,2091,51.4939,31.2947,0
Yangsan,2092,35.3386,129.0386,0
Comilla,2093,23.45,91.2,0
Oyster Bay,2094,40.7845,-73.5139,0
Valparaíso,2095,-33.0458,-71.6197,0
Augsburg,2096,48.3717,10.8983,0
Mbeya,2097,-8.9,33.45,0
Limeira,2098,-22.5647,-47.4017,0
Rangpur,2099,25.75,89.25,0
Shiliguri,2100,26.72,88.42,0
Aksaray,2101,38.3686,34.0297,0
Navotas,2102,14.6667,120.9417,0
Çorum,2103,40.5489,34.9533,0
Bāli,2104,22.65,88.34,0
Ismailia,2105,30.5833,32.2667,0
Vila Teixeira da Silva,2106,-12.1958,15.8556,0
Pānīpat,2107,29.4004,76.97,0
Delmas,2108,18.55,-72.3,0
Batna,2109,35.55,6.1667,0
Kunp’o,2110,37.3675,126.9469,0
Tambov,2111,52.7167,41.4333,0
Iaşi,2112,47.1622,27.5889,0
Thiès,2113,14.7833,-16.9167,0
Makurdi,2114,7.73,8.53,0
Kherson,2115,46.6333,32.6,0
Groznyy,2116,43.3125,45.6986,0
Hong’an,2117,47.21,123.61,0
Bafoussam,2118,5.4667,10.4167,0
Resistencia,2119,-27.4514,-58.9867,0
Braşov,2120,45.65,25.6,0
Kassel,2121,51.3166,9.4912,0
Juliaca,2122,-15.4908,-70.1269,0
Karīmnagar,2123,18.4333,79.15,0
Morioka,2124,39.6833,141.15,0
Sétif,2125,36.19,5.41,0
Trenton,2126,40.2236,-74.7641,0
Kaunas,2127,54.9,23.9333,0
Mulhouse,2128,47.75,7.34,0
Sekondi,2129,4.9433,-1.704,0
Lincoln,2130,40.809,-96.6788,0
Bhuj,2131,23.2504,69.81,0
Ichalkaranji,2132,16.7,74.47,0
Tirupati,2133,13.65,79.42,0
Springfield,2134,37.1943,-93.2916,0
Anchorage,2135,61.1508,-149.1091,0
Punto Fijo,2136,11.7167,-70.1833,0
Sincelejo,2137,9.2994,-75.3958,0
Plano,2138,33.0502,-96.7487,0
Irvine,2139,33.6772,-117.7738,0
Camaçari,2140,-12.6978,-38.3239,0
Orléans,2141,47.9025,1.909,0
Binangonan,2142,14.4514,121.1919,0
Suzano,2143,-23.5428,-46.3108,0
Hospet,2144,15.2667,76.4,0
Ostrava,2145,49.8356,18.2925,0
Tacna,2146,-18.0556,-70.2483,0
Korhogo,2147,9.4578,-5.6294,0
Constanţa,2148,44.1733,28.6383,0
Haifa,2149,32.8,34.9833,0
Coacalco,2150,19.6333,-99.0931,0
Crato,2151,-7.2342,-39.4094,0
Limoges,2152,45.8353,1.2625,0
Davenport,2153,41.5563,-90.6052,0
Fukushima,2154,37.7608,140.4733,0
Barinas,2155,8.615,-70.1985,0
Coro,2156,11.395,-69.6816,0
Bago,2157,17.3433,96.4981,0
Fuquan,2158,26.7039,107.5087,0
Tongchuanshi,2159,35.08,109.03,0
Āīzawl,2160,23.7104,92.72,0
Santa Maria,2161,-29.6839,-53.8069,0
Taboão da Serra,2162,-23.6019,-46.7528,0
Marabá,2163,-5.3689,-49.1178,0
Sannai,2164,24.16,80.83,0
Huozhou,2165,36.5726,111.7176,0
Temuco,2166,-38.7399,-72.5901,0
Sterlitamak,2167,53.6333,55.95,0
Rockford,2168,42.2597,-89.0641,0
Tegal,2169,-6.8667,109.1333,0
Ica,2170,-14.0667,-75.7333,0
Newark,2171,40.7245,-74.1725,0
Jining,2172,41.03,113.08,0
Chuncheon,2173,37.8747,127.7342,0
Malārd,2174,35.6658,50.9767,0
Pematangsiantar,2175,2.96,99.06,0
Long Xuyên,2176,10.3686,105.4234,0
Petrozavodsk,2177,61.7833,34.35,0
South Bend,2178,41.6767,-86.2696,0
Mingaora,2179,34.7717,72.36,0
San Pedro Carchá,2180,15.4768,-90.312,0
Bārāsat,2181,22.2333,88.45,0
Shreveport,2182,32.4656,-93.7956,0
Sumbe,2183,-11.2052,13.8417,0
Việt Trì,2184,21.3136,105.3947,0
Cherkasy,2185,49.4444,32.0597,0
Caála,2186,-12.85,15.55,0
Wiesbaden,2187,50.0825,8.24,0
Kostroma,2188,57.7667,40.9333,0
Round Lake Beach,2189,42.379,-88.0811,0
Gyeongsan,2190,35.8167,128.7333,0
Governador Valadares,2191,-18.8508,-41.9489,0
Katowice,2192,50.25,19.0,0
Shaowu,2193,27.3417,117.4869,0
Sfax,2194,34.74,10.76,0
Nizhnevartovsk,2195,60.9389,76.595,0
Linxia Chengguanzhen,2196,35.6,103.2167,0
Pachuca,2197,20.1,-98.75,0
Juazeiro do Norte,2198,-7.2128,-39.315,0
Dire Dawa,2199,9.5833,41.8667,0
Khmelnytskyi,2200,49.42,27.0,0
Owo,2201,7.1962,5.5868,0
San Cristóbal,2202,18.4167,-70.1333,0
Savannah,2203,32.0281,-81.1784,0
Posadas,2204,-27.3667,-55.8969,0
Gatineau,2205,45.4833,-75.65,0
Windsor,2206,42.2833,-83.0,0
Myrtle Beach,2207,33.7096,-78.8843,0
Mbandaka,2208,0.0486,18.2603,0
Tehuacán,2209,18.4617,-97.3928,0
La Guaira,2210,10.6,-66.9331,0
Kunsan,2211,35.9786,126.7114,0
Chula Vista,2212,32.6281,-117.0145,0
Ratlām,2213,23.3167,75.0667,0
Yeosu,2214,34.7607,127.6622,0
Crato,2215,-7.4639,-63.04,0
Derby,2216,52.9167,-1.4667,0
Tsu,2217,34.7186,136.5056,0
Kafr ad Dawwār,2218,31.1417,30.1272,0
Eugene,2219,44.0563,-123.1173,0
Gijón,2220,43.5333,-5.7,0
Bijiao,2221,22.9311,113.2018,0
Chiayi,2222,23.48,120.4497,0
Palmas,2223,-10.2128,-48.3603,0
Craiova,2224,44.3333,23.8167,0
Sorong,2225,-0.8667,131.25,0
Majene,2226,-3.5336,118.966,0
Bukhara,2227,39.7747,64.4286,0
Aomori,2228,40.8222,140.7475,0
Thái Bình,2229,20.4461,106.3422,0
Minato,2230,35.6581,139.7514,0
Binjai,2231,3.6,98.4853,0
Fuchū,2232,35.6689,139.4778,0
Oral,2233,51.2333,51.3667,0
Brāhmanbāria,2234,23.9667,91.1,0
Sartā,2235,36.5504,53.1,0
Imphāl,2236,24.82,93.95,0
Plymouth,2237,50.3714,-4.1422,0
Santo Domingo de los Colorados,2238,-0.2542,-79.1719,0
Novorossiysk,2239,44.7167,37.7667,0
Santa Ana,2240,13.9833,-89.5333,0
Zhytomyr,2241,50.2544,28.6578,0
Villa Altagracia,2242,18.67,-70.17,0
Gombe,2243,10.2904,11.17,0
Mito,2244,36.3667,140.4667,0
Espoo,2245,60.21,24.66,0
Drug,2246,21.19,81.28,0
Floridablanca,2247,7.0697,-73.0978,0
Bamenda,2248,5.9333,10.1667,0
Handwāra,2249,34.4,74.28,0
Lucena,2250,13.9333,121.6167,0
Canton,2251,40.8075,-81.3677,0
Yoshkar-Ola,2252,56.6328,47.8958,0
Parnamirim,2253,-5.9158,-35.2628,0
Nalchik,2254,43.4833,43.6167,0
Ichihara,2255,35.4981,140.1156,0
Aswān,2256,24.0889,32.8997,0
Salamanca,2257,20.5703,-101.1972,0
İnegöl,2258,40.0806,29.5097,0
Chernivtsi,2259,48.2908,25.9344,0
Sumaré,2260,-22.8219,-47.2669,0
Lubbock,2261,33.5659,-101.8878,0
Yanbu‘,2262,24.0943,38.0493,0
Sumy,2263,50.9068,34.7992,0
Tshikapa,2264,-6.4167,20.8,0
Anantapur,2265,14.6833,77.6,0
San Pablo,2266,14.07,121.325,0
Reading,2267,40.34,-75.9267,0
Winter Haven,2268,28.0118,-81.7017,0
Ipatinga,2269,-19.4678,-42.5369,0
Myeik,2270,12.4394,98.6003,0
Kütahya,2271,39.4242,29.9833,0
Salem,2272,44.9231,-123.0246,0
Djelfa,2273,34.6667,3.25,0
Suncheon,2274,34.9506,127.4875,0
Graz,2275,47.0749,15.4409,0
St. Petersburg,2276,27.7931,-82.6652,0
Engels,2277,51.4667,46.1167,0
Kindu,2278,-2.95,25.9167,0
Oruro,2279,-17.9667,-67.1167,0
Dezfūl,2280,32.3878,48.4033,0
Osmaniye,2281,37.075,36.25,0
Lafayette,2282,30.2084,-92.0323,0
Kyŏngju,2283,35.85,129.2167,0
Dumai,2284,1.6667,101.45,0
Gent,2285,51.0536,3.7253,0
San Lorenzo,2286,-25.3431,-57.5094,0
Geelong,2287,-38.15,144.35,0
Çorlu,2288,41.1597,27.8028,0
Nawabshah,2289,26.2442,68.41,0
Gelsenkirchen,2290,51.5167,7.1,0
Bordeaux,2291,44.84,-0.58,0
Mönchengladbach,2292,51.2,6.4333,0
Volta Redonda,2293,-22.5231,-44.1042,0
Matala,2294,-14.7306,15.0367,0
Annaba,2295,36.9,7.7667,0
Barueri,2296,-23.5111,-46.8764,0
Laredo,2297,27.5629,-99.4875,0
Nonthaburi,2298,13.8667,100.5167,0
Jersey City,2299,40.7161,-74.0682,0
Venice,2300,45.4397,12.3319,0
Quảng Ngãi,2301,15.1206,108.7922,0
Concord,2302,35.3933,-80.6366,0
Damanhūr,2303,31.05,30.4667,0
Ciudad Benito Juárez,2304,25.65,-100.0833,0
Cascavel,2305,-24.9558,-53.4553,0
Hiratsuka,2306,35.3231,139.3422,0
Columbus,2307,32.51,-84.8771,0
Chandler,2308,33.2826,-111.8516,0
Sakarya,2309,40.7778,30.4028,0
Tagum,2310,7.4478,125.8078,0
Fukui,2311,36.0641,136.2196,0
Sōka,2312,35.8256,139.8056,0
Kunduz,2313,36.728,68.8725,0
Ciudad Santa Catarina,2314,25.6833,-100.45,0
Los Mochis,2315,25.7835,-108.9937,0
Imperatriz,2316,-5.5258,-47.4758,0
Texcoco,2317,19.52,-98.88,0
Santa Maria,2318,14.8183,120.9563,0
Mişrātah,2319,32.3778,15.0901,0
Isparta,2320,37.7667,30.55,0
Foz do Iguaçu,2321,-25.54,-54.5875,0
Verona,2322,45.4386,10.9928,0
Huayin,2323,34.5664,110.0866,0
Etāwah,2324,26.7855,79.015,0
McKinney,2325,33.2015,-96.6669,0
Playa del Carmen,2326,20.6275,-87.0811,0
Scottsdale,2327,33.6872,-111.8651,0
Wolverhampton,2328,52.5833,-2.1333,0
Killeen,2329,31.0754,-97.7296,0
Bergen,2330,60.3925,5.3233,0
Tallahassee,2331,30.4551,-84.2526,0
Horlivka,2332,48.3336,38.0925,0
Antsirabe,2333,-19.8667,47.0333,0
Ondo,2334,7.0904,4.84,0
San Mateo,2335,14.6969,121.1219,0
Ấp Đa Lợi,2336,11.9304,108.42,0
Viamão,2337,-30.0808,-51.0228,0
Peoria,2338,40.752,-89.6153,0
Gravataí,2339,-29.9433,-50.9939,0
Kediri,2340,-7.8166,112.0119,0
Damaturu,2341,11.75,11.9667,0
Tokushima,2342,34.0667,134.55,0
Malolos,2343,14.8433,120.8114,0
La Paz,2344,24.1422,-110.3108,0
Wilmington,2345,34.21,-77.8866,0
Rāichūr,2346,16.2104,77.355,0
Mawlamyine,2347,16.4847,97.6258,0
Turmero,2348,10.2283,-67.4753,0
Kuala Terengganu,2349,5.3303,103.1408,0
Daloa,2350,6.89,-6.45,0
Puerto Princesa,2351,9.75,118.75,0
Moçâmedes,2352,-15.1953,12.1508,0
Vitoria-Gasteiz,2353,42.85,-2.6833,0
Qarshi,2354,38.8667,65.8,0
Montgomery,2355,32.3473,-86.2666,0
Gilbert,2356,33.3101,-111.7463,0
Rishon LeẔiyyon,2357,31.95,34.8,0
Ongole,2358,15.5,80.05,0
Arua,2359,3.03,30.91,0
Bharatpur,2360,27.2172,77.49,0
Shinozaki,2361,33.95,130.9333,0
Goma,2362,-1.6794,29.2336,0
Rạch Giá,2363,10.0125,105.0808,0
Kanggye,2364,40.9667,126.6,0
Taganrog,2365,47.2333,38.9,0
Kızıltepe,2366,37.1939,40.5861,0
El Fasher,2367,13.63,25.35,0
Várzea Grande,2368,-15.65,-56.14,0
Las Condes,2369,-33.4167,-70.5833,0
Glendale,2370,33.5791,-112.2311,0
Santiago del Estero,2371,-27.7844,-64.2669,0
Hakodate,2372,41.7733,140.7261,0
Uşak,2373,38.6833,29.4,0
Begusarai,2374,25.42,86.13,0
North Las Vegas,2375,36.288,-115.0901,0
Sonīpat,2376,28.9958,77.0114,0
Los Teques,2377,10.3411,-67.0406,0
Mabalacat,2378,15.2167,120.5833,0
Jinshi,2379,29.6334,111.8746,0
Chōfugaoka,2380,35.6506,139.5408,0
Osh,2381,40.5333,72.7833,0
Iwo,2382,7.63,4.18,0
Bata,2383,1.865,9.77,0
Komsomol’sk-na-Amure,2384,50.55,137.0,0
Bābol,2385,36.55,52.6833,0
Galaţi,2386,45.4233,28.0425,0
Al Bayḑā’,2387,32.7628,21.755,0
Kurmuk,2388,10.5563,34.2848,0
Manzhouli,2389,49.5881,117.4525,0
Braunschweig,2390,52.2692,10.5211,0
Rivne,2391,50.6197,26.2514,0
Gdynia,2392,54.5189,18.5319,0
Soyapango,2393,13.7472,-89.1639,0
Palangkaraya,2394,-2.21,113.92,0
Silang,2395,14.2306,120.975,0
Al Minyā,2396,28.0833,30.75,0
Ḩafr al Bāţin,2397,28.4337,45.9601,0
Chigasaki,2398,35.3339,139.4047,0
Būkān,2399,36.5208,46.2117,0
Aachen,2400,50.7762,6.0838,0
Kiel,2401,54.3233,10.1394,0
Sahiwal,2402,30.6706,73.1064,0
Thủ Dầu Một,2403,11.0042,106.6583,0
Novo Hamburgo,2404,-29.6778,-51.1308,0
Sibu,2405,2.3,111.8167,0
Yato,2406,35.4693,139.4616,0
Paraná,2407,-31.7444,-60.5175,0
Yamagata,2408,38.25,140.3333,0
Oruro,2409,-17.98,-67.13,0
Tsukuba-kenkyūgakuen-toshi,2410,36.0333,140.0667,0
Merlo,2411,-34.6653,-58.7275,0
Magé,2412,-22.6528,-43.0408,0
Syktyvkar,2413,61.6667,50.8167,0
Khimki,2414,55.8892,37.445,0
Birāṭnagar,2415,26.4833,87.2833,0
Colombo,2416,-25.2919,-49.2239,0
Chemnitz,2417,50.8333,12.9167,0
Saskatoon,2418,52.1333,-106.6833,0
Colón,2419,9.3598,-79.9004,0
Itagüí,2420,6.1726,-75.6096,0
Abertawe,2421,51.6167,-3.95,0
Jessore,2422,23.1704,89.2,0
Beichengqu,2423,40.4348,113.1565,0
Tuy Hòa,2424,13.0869,109.3086,0
Shrīrāmpur,2425,22.75,88.34,0
Chesapeake,2426,36.6778,-76.3024,0
Fuji,2427,35.1614,138.6764,0
Hāpur,2428,28.7437,77.7628,0
Bahir Dar,2429,11.585,37.39,0
Manisa,2430,38.6131,27.4258,0
Tanga,2431,-5.0667,39.1,0
Sabzevār,2432,36.2167,57.6667,0
Rāmgundam,2433,18.8,79.45,0
Porto,2434,41.1495,-8.6108,0
Baruta,2435,10.4335,-66.8754,0
Tacloban,2436,11.2444,125.0039,0
Itaboraí,2437,-22.7475,-42.8558,0
Myitkyina,2438,25.3867,97.3936,0
Barnstable,2439,41.6722,-70.3599,0
Haeju,2440,38.0333,125.7167,0
Petaẖ Tiqwa,2441,32.0833,34.8833,0
Norfolk,2442,36.8945,-76.259,0
González Catán,2443,-34.7708,-58.6464,0
Sete Lagoas,2444,-19.4658,-44.2469,0
Tarapoto,2445,-6.4833,-76.3667,0
Zhangping,2446,25.2938,117.4148,0
San Juan del Río,2447,20.3833,-99.9833,0
São Carlos,2448,-22.0178,-47.8908,0
Fremont,2449,37.5265,-121.9852,0
Halle,2450,51.4828,11.9697,0
São Leopoldo,2451,-29.76,-51.1469,0
Arakawa,2452,35.7333,139.7833,0
Düzce,2453,40.8417,31.1583,0
Anju,2454,39.6167,125.6667,0
Divinópolis,2455,-20.1389,-44.8839,0
Aarhus,2456,56.1572,10.2107,0
Kennewick,2457,46.1978,-119.1732,0
Hobart,2458,-42.8806,147.325,0
Atushi,2459,39.7114,76.1753,0
Chimoio,2460,-19.1167,33.45,0
Limassol,2461,34.675,33.0443,0
Garland,2462,32.91,-96.6305,0
Magdeburg,2463,52.1278,11.6292,0
Irving,2464,32.8584,-96.9702,0
Hachimanchō,2465,40.51,141.54,0
Longueuil,2466,45.5333,-73.5167,0
Mokpo,2467,34.7936,126.3886,0
Košice,2468,48.7167,21.25,0
‘Ajmān,2469,25.3994,55.4797,0
Lille,2470,50.6278,3.0583,0
Banda Aceh,2471,5.55,95.3175,0
Shenmu,2472,38.827,110.499,0
Le Havre,2473,49.49,0.1,0
Taiping,2474,4.85,100.7333,0
P’yŏng-dong,2475,39.25,125.85,0
Springs,2476,-26.2547,28.4428,0
Ivano-Frankivsk,2477,48.9228,24.7106,0
As Sīb,2478,23.6802,58.1825,0
Nārāyanganj,2479,23.6167,90.5,0
Maradi,2480,13.4916,7.0964,0
Wuyishan,2481,27.7562,118.0267,0
Sato,2482,33.1631,129.7177,0
Āmol,2483,36.4669,52.3569,0
Quilmes,2484,-34.7167,-58.2667,0
Mirpur Khas,2485,25.5269,69.0111,0
Nizhnekamsk,2486,55.6333,51.8167,0
Visalia,2487,36.3276,-119.3269,0
Al Jubayl,2488,27.0046,49.646,0
Pathein,2489,16.7667,94.7333,0
Secunderābād,2490,17.45,78.5,0
Neya,2491,34.7661,135.6281,0
Chishui,2492,28.5902,105.6946,0
Centurion,2493,-25.8603,28.1894,0
Atlantic City,2494,39.3797,-74.4527,0
Uluberiya,2495,22.47,88.11,0
Shakhty,2496,47.7,40.2333,0
Pākdasht,2497,35.4817,51.6803,0
Granada,2498,37.1781,-3.6008,0
Abhā,2499,18.2167,42.5,0
Ibb,2500,13.9759,44.1709,0
Garoua,2501,9.3,13.4,0
Bole,2502,44.898,82.0726,0
Ganda,2503,-13.0167,14.6333,0
Elche,2504,38.2669,-0.6983,0
Najafābād,2505,32.6342,51.3667,0
Bayamo,2506,20.3817,-76.6428,0
Porbandar,2507,21.6425,69.6047,0
Kamianske,2508,48.5076,34.6132,0
Borūjerd,2509,33.8972,48.7514,0
Paradise,2510,36.0807,-115.1369,0
Singaraja,2511,-8.1152,115.0944,0
Macaé,2512,-22.3708,-41.7869,0
Miri,2513,4.4147,114.0089,0
Machala,2514,-3.2667,-79.9667,0
Longquan,2515,28.0733,119.1277,0
Monclova,2516,26.9103,-101.4222,0
Puducherry,2517,11.93,79.83,0
Olongapo,2518,14.8333,120.2833,0
Messina,2519,38.1936,15.5542,0
Kremenchuk,2520,49.0775,33.4239,0
Nashua,2521,42.7491,-71.491,0
Santarém,2522,-2.4431,-54.7083,0
Badalona,2523,41.4333,2.2333,0
Okara,2524,30.81,73.4597,0
Arlington,2525,38.8786,-77.1011,0
Talisay,2526,10.25,123.8333,0
Hialeah,2527,25.8696,-80.3046,0
Saidpur,2528,25.8004,89.0,0
York,2529,39.9651,-76.7315,0
Saga,2530,33.2667,130.3,0
Burnaby,2531,49.2667,-122.9667,0
Rancagua,2532,-34.1654,-70.7398,0
Dzerzhinsk,2533,56.2333,43.45,0
Milton Keynes,2534,52.04,-0.76,0
Marília,2535,-22.2139,-49.9458,0
Bratsk,2536,56.1667,101.6167,0
Jiayuguan,2537,39.8112,98.2862,0
Indaiatuba,2538,-23.0903,-47.2181,0
Envigado,2539,6.1719,-75.5803,0
Freiburg im Breisgau,2540,47.9947,7.8497,0
Eloy Alfaro,2541,-2.1733,-79.8311,0
Maracanaú,2542,-3.8769,-38.6258,0
Ageoshimo,2543,35.9775,139.5933,0
Qarchak,2544,35.4394,51.5689,0
Neuquén,2545,-38.9573,-68.0455,0
Ibb,2546,13.9667,44.1667,0
Banfield,2547,-34.75,-58.3833,0
Cabo Frio,2548,-22.8789,-42.0189,0
Singkawang,2549,0.9,108.9833,0
Orsk,2550,51.2,58.6167,0
Vizianagaram,2551,18.1167,83.4167,0
North Hempstead,2552,40.7912,-73.6688,0
Evansville,2553,37.9881,-87.5341,0
Cotia,2554,-23.6039,-46.9189,0
Pāli,2555,25.7725,73.3233,0
Noginsk,2556,64.4833,91.2333,0
Kropyvnytskyi,2557,48.5103,32.2667,0
Częstochowa,2558,50.8096,19.1222,0
Rondonópolis,2559,-16.4708,-54.6358,0
Guantánamo,2560,20.1383,-75.2061,0
Krefeld,2561,51.3333,6.5667,0
Tanza,2562,14.3944,120.8531,0
Marilao,2563,14.7581,120.9481,0
Guadalupe,2564,22.7528,-102.5078,0
Taitō,2565,35.7126,139.78,0
Kolpino,2566,59.73,30.65,0
Burgas,2567,42.5,27.4667,0
Puerto Vallarta,2568,20.6667,-105.2667,0
Avondale,2569,33.3858,-112.3236,0
Nyala,2570,12.05,24.8833,0
Brownsville,2571,25.998,-97.4565,0
Daşoguz,2572,41.8167,59.9831,0
Türkistan,2573,43.3,68.2436,0
Probolinggo,2574,-7.75,113.2167,0
Jacareí,2575,-23.305,-45.9658,0
Gusau,2576,12.1704,6.66,0
Buenavista,2577,19.6083,-99.1694,0
Quetzaltenango,2578,14.8333,-91.5167,0
Tarrasa,2579,41.5611,2.0081,0
Araraquara,2580,-21.7939,-48.1758,0
Angarsk,2581,52.5667,103.9167,0
Sousse,2582,35.8333,10.6333,0
Nāgercoil,2583,8.17,77.43,0
Heroica Nogales,2584,31.3186,-110.9458,0
Apapa,2585,6.4489,3.3589,0
Nyanza,2586,-2.3496,29.74,0
Itapevi,2587,-23.5489,-46.9342,0
Bạc Liêu,2588,9.2833,105.7167,0
Varāmīn,2589,35.2714,51.6511,0
Padangsidempuan,2590,1.3667,99.2667,0
Karnāl,2591,29.6804,76.97,0
Mubi,2592,10.2686,13.267,0
Toamasina,2593,-18.1492,49.4023,0
Campeche,2594,19.85,-90.5306,0
Korolëv,2595,55.9167,37.8167,0
Dourados,2596,-22.2208,-54.8058,0
Hunchun,2597,42.8679,130.3585,0
Tampere,2598,61.4981,23.7608,0
Minamiōzuma,2599,36.2404,137.97,0
Blagoveshchensk,2600,50.2578,127.5364,0
Velikiy Novgorod,2601,58.521,31.2758,0
Longjin,2602,22.8711,113.0684,0
Ashdod,2603,31.7978,34.6503,0
Carlos Manuel de Céspedes,2604,21.5767,-78.2775,0
Niğde,2605,37.9667,34.6792,0
Chapecó,2606,-27.0958,-52.6178,0
Sandton,2607,-26.107,28.0517,0
Tanjore,2608,10.8,79.15,0
Staryy Oskol,2609,51.2981,37.835,0
Itajaí,2610,-26.9078,-48.6619,0
Puri,2611,19.8,85.8167,0
Cartago,2612,9.8667,-83.9167,0
Ji’an Shi,2613,41.1231,126.1815,0
Soledad de Graciano Sánchez,2614,22.1833,-100.9333,0
Presidente Prudente,2615,-22.1258,-51.3889,0
José C. Paz,2616,-34.5167,-58.7667,0
Ternopil,2617,49.5667,25.6,0
Rufisque,2618,14.7167,-17.2667,0
Formosa,2619,-26.1847,-58.1758,0
Sabadell,2620,41.5483,2.1075,0
Guéckédou,2621,8.5667,-10.1333,0
Sambhal,2622,28.58,78.55,0
Polokwane,2623,-23.9,29.45,0
Neyshābūr,2624,36.22,58.82,0
Sidon,2625,33.5606,35.3981,0
Radom,2626,51.4036,21.1567,0
Lutsk,2627,50.7478,25.3244,0
Oviedo,2628,43.36,-5.845,0
Gulfport,2629,30.4271,-89.0703,0
Sāveh,2630,35.0211,50.3564,0
La Vega,2631,19.2242,-70.5283,0
Appleton,2632,44.2779,-88.3891,0
Khomeynī Shahr,2633,32.7,51.5211,0
Juazeiro,2634,-9.4139,-40.5028,0
Itabuna,2635,-14.7858,-39.28,0
Al Khubar,2636,26.3,50.2167,0
Islington,2637,51.544,-0.1027,0
Córdoba,2638,18.8942,-96.9347,0
Ciudad Acuña,2639,29.3242,-100.9317,0
Tuluá,2640,4.0847,-76.1986,0
Mainz,2641,50.0,8.2667,0
Hortolândia,2642,-22.8583,-47.22,0
Bitung,2643,1.4472,125.1978,0
Naihāti,2644,22.9,88.42,0
Petrel,2645,38.4789,-0.7967,0
Damietta,2646,31.4167,31.8214,0
Manta,2647,-0.95,-80.7162,0
Butembo,2648,0.1251,29.299,0
San Miguel,2649,13.4833,-88.1833,0
San Pedro de Macorís,2650,18.4572,-69.3061,0
Netanya,2651,32.3328,34.86,0
Bremerton,2652,47.5436,-122.7122,0
Alor Setar,2653,6.1167,100.3667,0
Hickory,2654,35.7425,-81.323,0
Luton,2655,51.8783,-0.4147,0
Tacoma,2656,47.2431,-122.4531,0
Laâyoune,2657,27.15,-13.2,0
Aberdeen,2658,57.15,-2.11,0
Lübeck,2659,53.8697,10.6864,0
Denov,2660,38.2772,67.8872,0
Maţraḩ,2661,23.6167,58.5667,0
Qostanay,2662,53.2144,63.6246,0
Banjarbaru,2663,-3.4667,114.75,0
Sa Đéc,2664,10.3105,105.7397,0
Norwich,2665,52.63,1.297,0
Gujiao,2666,37.9069,112.17,0
Cartagena,2667,37.6,-0.9819,0
Petropavl,2668,54.8622,69.1408,0
Marg‘ilon,2669,40.4667,71.7167,0
Gangneung,2670,37.7556,128.8961,0
San Bernardino,2671,34.1417,-117.2946,0
Cúa,2672,10.1667,-66.8833,0
Meycauayan,2673,14.7333,120.95,0
Vantaa,2674,60.3,25.0333,0
As Samāwah,2675,31.3167,45.2833,0
Ormoc,2676,11.0167,124.6167,0
College Station,2677,30.5852,-96.296,0
Golmud,2678,36.4028,94.9042,0
Kalamazoo,2679,42.2749,-85.5882,0
Regina,2680,50.4547,-104.6067,0
Thousand Oaks,2681,34.1914,-118.8755,0
La Victoria,2682,10.2278,-67.3336,0
Shimla,2683,31.1033,77.1722,0
Mohammedia,2684,33.6833,-7.3833,0
Babruysk,2685,53.15,29.2333,0
Roanoke,2686,37.2785,-79.958,0
Osan,2687,37.145,127.0694,0
Geneva,2688,46.2,6.15,0
Fontana,2689,34.0968,-117.4599,0
Sikasso,2690,11.3167,-5.6667,0
Alvorada,2691,-29.99,-51.0839,0
Warnes,2692,-17.5103,-63.1647,0
Ciudad Madero,2693,22.25,-97.8333,0
Oberhausen,2694,51.4699,6.8514,0
El Tigre,2695,8.8858,-64.2611,0
Jerez de la Frontera,2696,36.6817,-6.1378,0
Jalālābād,2697,34.4303,70.4528,0
Moreno Valley,2698,33.9244,-117.2045,0
Sidi Bel Abbès,2699,35.2,-0.6333,0
Limbe,2700,4.0167,9.2167,0
Kure,2701,34.2492,132.5658,0
Tumaco,2702,1.8067,-78.7647,0
Padova,2703,45.4064,11.8778,0
Pamplona,2704,42.8167,-1.65,0
Arroyo Naranjo,2705,23.0436,-82.3328,0
Ploieşti,2706,44.9386,26.0225,0
Criciúma,2707,-28.6775,-49.3697,0
Metepec,2708,19.2511,-99.6047,0
Rio Grande,2709,-32.035,-52.0989,0
Pskov,2710,57.8167,28.3333,0
Bila Tserkva,2711,49.7956,30.1167,0
Chungju,2712,36.9706,127.9322,0
Babylon,2713,40.6924,-73.3585,0
Tunja,2714,5.5403,-73.3614,0
Barrancabermeja,2715,7.0675,-73.8472,0
Cachoeiro de Itapemirim,2716,-20.8489,-41.1128,0
Santa Cruz,2717,28.4667,-16.25,0
San-Pédro,2718,4.7704,-6.64,0
Bukit Mertajam,2719,5.3631,100.4667,0
Ijebu-Ode,2720,6.8204,3.92,0
Cork,2721,51.9,-8.4731,0
Guarenas,2722,10.4739,-66.5383,0
Taisheng,2723,23.2938,113.353,0
Rostock,2724,54.0833,12.1333,0
Dongning,2725,44.0608,131.1187,0
Moratuwa,2726,6.7804,79.88,0
Burutu,2727,5.3533,5.5083,0
Ich’ŏn,2728,37.2792,127.4425,0
Puerto Cabello,2729,10.4667,-68.0167,0
Beersheba,2730,31.2589,34.7978,0
Nasīm Shahr,2731,35.5644,51.1647,0
North Port,2732,27.0577,-82.1975,0
Almere,2733,52.3758,5.2256,0
Lubuklinggau,2734,-3.2967,102.8617,0
Qinā,2735,26.1667,32.7167,0
Mary,2736,37.6,61.8333,0
Fargo,2737,46.8652,-96.8292,0
Huangyan,2738,28.65,121.25,0
Santa Clara,2739,22.4067,-79.9531,0
Kharagpur,2740,22.3302,87.3237,0
Northcote,2741,-36.7913,174.7758,0
Waitakere,2742,-36.849,174.543,0
Monywa,2743,22.1083,95.1358,0
Dindigul,2744,10.35,77.95,0
Morogoro,2745,-6.8242,37.6633,0
Green Bay,2746,44.515,-87.9896,0
Cidade de Nacala,2747,-14.55,40.6833,0
Talca,2748,-35.4266,-71.6661,0
Portoviejo,2749,-1.0544,-80.4544,0
Spring Valley,2750,36.0987,-115.2619,0
Pingzhen,2751,24.9439,121.2161,0
Linz,2752,48.3,14.2833,0
Trieste,2753,45.6503,13.7703,0
Phan Thiết,2754,10.9375,108.1583,0
Kalemie,2755,-5.9147,29.1939,0
Biskra,2756,34.85,5.7333,0
Kamirenjaku,2757,35.6833,139.5594,0
Ingrāj Bāzār,2758,25.0,88.15,0
Banī Suwayf,2759,29.0667,31.0833,0
Ellore,2760,16.7,81.1,0
León,2761,42.6056,-5.57,0
Mytishchi,2762,55.9167,37.7333,0
Zanzibar,2763,-6.1667,39.2,0
Jiutai,2764,44.1447,125.8443,0
Qā’em Shahr,2765,36.4611,52.8606,0
Bolu,2766,40.7333,31.6,0
Amarillo,2767,35.1988,-101.8311,0
Ziguinchor,2768,12.5833,-16.2667,0
Ternate,2769,0.7833,127.3667,0
Puqi,2770,29.7204,113.88,0
Bené Beraq,2771,32.0807,34.8338,0
Passo Fundo,2772,-28.2628,-52.4069,0
La Ceiba,2773,15.78,-86.7878,0
Yachiyo,2774,35.7225,140.0997,0
Coquimbo,2775,-29.9532,-71.338,0
Mandi Burewala,2776,30.15,72.6833,0
Marawi City,2777,8.0,124.3,0
Erfurt,2778,50.9787,11.0328,0
Portland,2779,43.6773,-70.2715,0
Groningen,2780,53.2167,6.5667,0
Biysk,2781,52.5167,85.1667,0
Charleroi,2782,50.4167,4.4442,0
La Romana,2783,18.43,-68.97,0
Mazabuka,2784,-15.8667,27.7667,0
Poza Rica de Hidalgo,2785,20.5333,-97.45,0
Toruń,2786,53.0167,18.6167,0
Tanjungpinang,2787,0.9188,104.4554,0
Zhubei,2788,24.8333,121.0,0
Djougou,2789,9.7004,1.68,0
Luxor,2790,25.6969,32.6422,0
Tarakan,2791,3.3,117.6333,0
Santa Barbara,2792,34.4285,-119.7202,0
Gainesville,2793,29.6804,-82.3458,0
Las Tunas,2794,20.9667,-76.95,0
Al Khawr,2795,25.69,51.51,0
Lyubertsy,2796,55.6814,37.8939,0
Matsue,2797,35.4681,133.0486,0
Sosnowiec,2798,50.3,19.1667,0
Arica,2799,-18.4784,-70.3211,0
Al Khums,2800,32.6604,14.26,0
Almería,2801,36.8403,-2.4681,0
Huacho,2802,-11.1083,-77.6083,0
Debrecen,2803,47.53,21.6392,0
Nandyāl,2804,15.48,78.48,0
Cajamarca,2805,-7.1644,-78.5106,0
Huntington,2806,40.8522,-73.3824,0
Croydon,2807,51.3727,-0.1099,0
Lashkar Gāh,2808,31.5938,64.3716,0
Haldia,2809,22.0257,88.0583,0
San Pablo de las Salinas,2810,19.6656,-99.0917,0
Mai’Adua,2811,13.1906,8.2117,0
Jacobabad,2812,28.2769,68.4514,0
Tokat,2813,40.3097,36.5542,0
Qyzylorda,2814,44.8479,65.4999,0
Néma,2815,16.6171,-7.25,0
Olympia,2816,47.0417,-122.8959,0
Gurgaon,2817,28.45,77.02,0
Guacara,2818,10.2261,-67.877,0
Liège,2819,50.6397,5.5706,0
Oulu,2820,65.0142,25.4719,0
Frisco,2821,33.1555,-96.8215,0
Isidro Casanova,2822,-34.7,-58.5833,0
Maīmanah,2823,35.9302,64.7701,0
Yonkers,2824,40.9466,-73.8674,0
Rio Claro,2825,-22.4108,-47.5608,0
Norwich,2826,41.5495,-72.0882,0
Az Zāwīyah,2827,32.7604,12.72,0
Bulandshahr,2828,28.4104,77.8484,0
Kasama,2829,-10.1996,31.1799,0
Puerto Cortés,2830,15.8833,-87.95,0
Kouribga,2831,32.88,-6.9,0
Lahad Datu,2832,5.03,118.34,0
Bojnūrd,2833,37.4667,57.3333,0
Pagadian,2834,7.8333,123.4333,0
Fuenlabrada,2835,40.2833,-3.8,0
Banja Luka,2836,44.7667,17.1833,0
Glendale,2837,34.1818,-118.2468,0
Huntington Beach,2838,33.696,-118.0025,0
Baharampur,2839,24.1,88.25,0
Taranto,2840,40.4181,17.2408,0
Brescia,2841,45.5389,10.2203,0
Logroño,2842,42.465,-2.4456,0
Ashino,2843,42.975,144.3747,0
Martapura,2844,-3.4135,114.8365,0
Chakradharpur,2845,22.7,85.63,0
Deltona,2846,28.905,-81.2137,0
Chilpancingo,2847,17.55,-99.5,0
Naga City,2848,13.6167,123.1667,0
Richmond,2849,49.1667,-123.1333,0
Holon,2850,32.0167,34.7667,0
Gemena,2851,3.25,19.7667,0
Tocuyito,2852,10.0889,-68.0922,0
Oradea,2853,47.0722,21.9211,0
Legazpi City,2854,13.1333,123.7333,0
Hedong,2855,42.5404,129.0039,0
Madhyamgram,2856,22.7,88.45,0
Aurora,2857,41.7637,-88.2901,0
Bhiwāni,2858,28.7833,76.1333,0
Burhānpur,2859,21.3004,76.13,0
Higashi-Hiroshima,2860,34.4167,132.7333,0
Mbanza-Ngungu,2861,-5.2496,14.86,0
Huánuco,2862,-9.9294,-76.2397,0
Hino,2863,35.6714,139.395,0
Zipaquirá,2864,5.0247,-74.0014,0
Béni Mellal,2865,32.3394,-6.3608,0
Prokopyevsk,2866,53.8833,86.7167,0
Rajin,2867,42.3444,130.3844,0
Ghāndīnagar,2868,23.22,72.68,0
Eldoret,2869,0.5167,35.2833,0
Kusŏng,2870,39.9667,125.1667,0
Sūhāj,2871,26.5606,31.6917,0
Khammam,2872,17.25,80.15,0
Kırıkkale,2873,39.8417,33.5139,0
Parma,2874,44.8015,10.328,0
Suzuka,2875,34.8822,136.5842,0
Brikama,2876,13.2804,-16.6599,0
Acarigua,2877,9.5597,-69.2019,0
Hugli,2878,22.9,88.39,0
Viranşehir,2879,37.2306,39.7653,0
San Luis Río Colorado,2880,32.4767,-114.7625,0
Iskandar,2881,41.5507,69.6807,0
Tempe,2882,33.3881,-111.9318,0
Naka,2883,37.4504,138.86,0
Leganés,2884,40.3281,-3.7644,0
Kenema,2885,7.8833,-11.1833,0
La Serena,2886,-29.9027,-71.252,0
Overland Park,2887,38.887,-94.687,0
Bandar-e Būshehr,2888,28.9667,50.8333,0
Prato,2889,43.8808,11.0966,0
Cholula de Rivadabia,2890,19.0633,-98.3064,0
Anseong,2891,37.0078,127.2797,0
Yuzhno-Sakhalinsk,2892,46.95,142.7333,0
Richmond Hill,2893,43.8667,-79.4333,0
Desē,2894,11.1333,39.6333,0
Gorontalo,2895,0.5411,123.0594,0
Grand Prairie,2896,32.6872,-97.0209,0
Quelimane,2897,-17.8764,36.8872,0
Tébessa,2898,35.4,8.1167,0
Kumagaya,2899,36.1472,139.3886,0
Al Jahrā’,2900,29.3375,47.6581,0
Karaman,2901,37.1833,33.2167,0
La Plata,2902,-34.9333,-57.95,0
San Juan Sacatepéquez,2903,14.7189,-90.6442,0
Cap-Haïtien,2904,19.75,-72.2,0
Oakville,2905,43.45,-79.6833,0
Sunrise Manor,2906,36.1785,-115.049,0
Muar,2907,2.05,102.56,0
Godoy Cruz,2908,-32.9167,-68.8333,0
Muş,2909,38.7333,41.4911,0
Hyesan,2910,41.4,128.1833,0
Kielce,2911,50.8725,20.6319,0
Arapiraca,2912,-9.7525,-36.6611,0
Valencia,2913,7.9,125.0833,0
Araçatuba,2914,-21.2089,-50.4328,0
Swindon,2915,51.56,-1.78,0
Castanhal,2916,-1.2969,-47.9219,0
Guanare,2917,9.0436,-69.7489,0
Waco,2918,31.5598,-97.1881,0
Basildon,2919,51.5761,0.4886,0
Madiun,2920,-7.63,111.5231,0
Valera,2921,9.3206,-70.6078,0
Mahbūbnagar,2922,16.7333,77.9833,0
Pasuruan,2923,-7.6406,112.9065,0
Aydın,2924,37.8481,27.8453,0
Shibīn al Kawm,2925,30.592,30.9,0
Armavir,2926,45.0,41.1167,0
Nova Friburgo,2927,-22.2819,-42.5308,0
Donostia,2928,43.32,-1.98,0
Balakovo,2929,52.039,47.7839,0
Batu,2930,-7.8672,112.5239,0
Anjōmachi,2931,34.9667,137.0833,0
Salinas,2932,36.6884,-121.6317,0
Mwene-Ditu,2933,-7.0,23.45,0
Sơn Tây,2934,21.1382,105.505,0
Ferraz de Vasconcelos,2935,-23.5411,-46.3689,0
Santa Bárbara d’Oeste,2936,-22.7539,-47.4139,0
Saddiqabad,2937,28.3006,70.1302,0
Rybinsk,2938,58.05,38.8333,0
Chŏngju,2939,39.65,125.3333,0
Hagen,2940,51.3594,7.475,0
Ngaoundéré,2941,7.3214,13.5839,0
Potosí,2942,-19.5833,-65.75,0
San Carlos City,2943,15.9281,120.3489,0
Pak Kret,2944,13.9125,100.4978,0
Waterbury,2945,41.5583,-73.0361,0
Donghua,2946,35.2175,106.6545,0
Parakou,2947,9.34,2.62,0
Mutare,2948,-18.9728,32.6694,0
Mataró,2949,41.5421,2.4445,0
Narsingdi,2950,23.9,90.7167,0
Pinar del Río,2951,22.4122,-83.6719,0
Clarksville,2952,36.5695,-87.342,0
Rāiganj,2953,25.6167,88.1167,0
Tachikawa,2954,35.6939,139.4194,0
Prabumulih,2955,-3.4328,104.2356,0
Angra dos Reis,2956,-23.0069,-44.3178,0
San Francisco de Macorís,2957,19.3,-70.25,0
Al Ḩasakah,2958,36.5117,40.7422,0
Turku,2959,60.4517,22.27,0
Guatire,2960,10.4717,-66.5406,0
Iquique,2961,-20.2141,-70.1524,0
Cedar Rapids,2962,41.9665,-91.6782,0
Kōfu,2963,35.6667,138.5667,0
San Diego,2964,10.2558,-67.9539,0
Gharyān,2965,32.1669,13.0167,0
Tottori,2966,35.5011,134.235,0
Bournemouth,2967,50.72,-1.88,0
Chaedŏk,2968,40.6723,129.2027,0
Jōetsu,2969,37.15,138.2333,0
Prizren,2970,42.2167,20.7333,0
Sioux Falls,2971,43.5397,-96.732,0
Kairouan,2972,35.6833,10.1,0
Shendi,2973,16.6805,33.42,0
Izuo,2974,34.4836,135.4236,0
Reims,2975,49.2628,4.0347,0
Modena,2976,44.6458,10.9257,0
Ed Damazin,2977,11.7704,34.35,0
Khŭjand,2978,40.2833,69.6167,0
El Jadid,2979,33.2566,-8.5025,0
Dunhuang,2980,40.1411,94.6616,0
Huntington,2981,38.4109,-82.4344,0
Mahesāna,2982,23.6,72.4,0
Guri,2983,37.5947,127.1428,0
Jamaame,2984,0.0722,42.7506,0
Panabo,2985,7.3,125.6833,0
Breda,2986,51.5875,4.775,0
Ādoni,2987,15.63,77.28,0
Semnān,2988,35.5833,53.3833,0
Temirtaū,2989,50.0667,72.9667,0
Basel,2990,47.5606,7.5906,0
Yei,2991,4.0904,30.68,0
Ontario,2992,34.0393,-117.6064,0
Luzhang,2993,25.8519,98.8562,0
Hagerstown,2994,39.6401,-77.7217,0
Al Qāmishlī,2995,37.05,41.2167,0
Ibirité,2996,-20.0219,-44.0589,0
Manzanillo,2997,19.0522,-104.3158,0
Erie,2998,42.1168,-80.0733,0
Teresópolis,2999,-22.4119,-42.9658,0
Vancouver,3000,45.6366,-122.5967,0
Nampa,3001,43.5845,-116.5631,0
Fardīs,3002,35.7247,50.9883,0
Fianarantsoa,3003,-21.4333,47.0833,0
Banjar,3004,-7.3667,108.5333,0
Severodvinsk,3005,64.5667,39.85,0
Rzeszów,3006,50.05,22.0,0
Siguiri,3007,11.4189,-9.1644,0
Calbayog City,3008,12.0667,124.6,0
Bhusāval,3009,21.02,75.83,0
Trondheim,3010,63.44,10.4,0
Aqtaū,3011,43.65,51.15,0
Niš,3012,43.3192,21.8961,0
Araguaína,3013,-7.1908,-48.2069,0
Narashino,3014,35.6808,140.0267,0
Abakan,3015,53.7167,91.4167,0
Burlington,3016,43.3167,-79.8,0
Bahraigh,3017,27.6204,81.6699,0
Potsdam,3018,52.4,13.0667,0
Bo,3019,7.9564,-11.74,0
Worthing,3020,50.8147,-0.3714,0
Pinrang,3021,-3.7857,119.6522,0
Guarapuava,3022,-25.395,-51.4578,0
Spartanburg,3023,34.9437,-81.9257,0
Brăila,3024,45.2692,27.9575,0
Gastonia,3025,35.2494,-81.1853,0
Amadora,3026,38.75,-9.2333,0
Braga,3027,41.5333,-8.4167,0
Fort Lauderdale,3028,26.1412,-80.1464,0
Kabankalan,3029,9.9833,122.8167,0
Reggio di Calabria,3030,38.1144,15.65,0
Tonk,3031,26.1505,75.79,0
Berazategui,3032,-34.7679,-58.2133,0
Khowy,3033,38.5503,44.9519,0
Sirsa,3034,29.4904,75.03,0
Tāngāil,3035,24.25,89.92,0
Jaunpur,3036,25.7333,82.6833,0
Dosquebradas,3037,4.8361,-75.6761,0
Saarbrücken,3038,49.2333,7.0,0
Santo Tomas,3039,14.0833,121.1833,0
Petropavlovsk-Kamchatskiy,3040,53.0167,158.65,0
Sittwe,3041,20.1444,92.8969,0
Epe,3042,6.5833,4.0,0
Phan Rang-Tháp Chàm,3043,11.5643,108.9886,0
Jaraguá do Sul,3044,-26.4858,-49.0669,0
Jīma,3045,7.6667,36.8333,0
Townsville,3046,-19.2564,146.8183,0
Lhokseumawe,3047,5.18,97.1506,0
Gliwice,3048,50.3011,18.6498,0
Funtua,3049,11.5204,7.32,0
Hinthada,3050,17.6483,95.4679,0
Turbo,3051,8.0931,-76.7283,0
La Rioja,3052,-29.4131,-66.8558,0
Çanakkale,3053,40.15,26.4,0
Madanapalle,3054,13.55,78.5,0
Palopo,3055,-3.0,120.2,0
Ayacucho,3056,-13.1631,-74.2244,0
Obuase,3057,6.2,-1.6833,0
Alleppey,3058,9.5004,76.37,0
Ipswich,3059,52.0594,1.1556,0
Boma,3060,-5.85,13.05,0
Tiaret,3061,35.3667,1.3167,0
Edirne,3062,41.6781,26.5594,0
Longjing,3063,42.77,129.4197,0
Split,3064,43.51,16.45,0
Ilhéus,3065,-14.7889,-39.0489,0
Lorain,3066,41.4409,-82.184,0
Barra Mansa,3067,-22.5439,-44.1708,0
Klerksdorp,3068,-26.8667,26.6667,0
Murfreesboro,3069,35.8492,-86.4119,0
High Point,3070,35.9907,-79.9938,0
Hamm,3071,51.6667,7.8167,0
Tarija,3072,-21.5317,-64.7311,0
Al ‘Arīsh,3073,31.1249,33.8006,0
São José de Ribamar,3074,-2.5619,-44.0539,0
Paita,3075,-5.0667,-81.1,0
Yopal,3076,5.3306,-72.3906,0
Salatiga,3077,-7.3095,110.4901,0
Newport News,3078,37.1051,-76.5185,0
Torbalı,3079,38.1619,27.3583,0
Langsa,3080,4.4667,97.95,0
Bade,3081,24.9575,121.2989,0
Bida,3082,9.0804,6.01,0
Şalālah,3083,17.0197,54.0897,0
Santander,3084,43.4628,-3.805,0
Matosinhos,3085,41.2077,-8.6674,0
Bīrjand,3086,32.8664,59.2211,0
Lin’an,3087,23.6236,102.8097,0
Chicoloapan,3088,19.4167,-98.9,0
Vellore,3089,12.9204,79.15,0
Dam Dam,3090,22.62,88.42,0
Bejaïa,3091,36.7511,5.0642,0
Rancho Cucamonga,3092,34.1248,-117.5666,0
Norilsk,3093,69.3333,88.2167,0
Baranavichy,3094,53.1167,25.9833,0
Nossa Senhora do Socorro,3095,-10.855,-37.1258,0
Hemet,3096,33.7341,-116.9969,0
Yangmei,3097,24.9167,121.15,0
Ciudad Valles,3098,21.9833,-99.0167,0
Kadugli,3099,11.01,29.7,0
Les Cayes,3100,18.2004,-73.75,0
Alcorcón,3101,40.35,-3.8333,0
Piraeus,3102,37.943,23.6469,0
Sunderland,3103,54.9061,-1.3811,0
Linhares,3104,-19.3987,-40.0651,0
Letpandan,3105,17.7866,95.7507,0
Zabrze,3106,50.3,18.7833,0
Almada,3107,38.6803,-9.1583,0
Ilford,3108,51.5588,0.0855,0
Plzeň,3109,49.7414,13.3825,0
Cuautla,3110,18.8167,-98.95,0
Rio Verde,3111,-17.7978,-50.9278,0
Santa Cruz,3112,36.9789,-122.0346,0
Saint-Louis,3113,16.0333,-16.5,0
Ait Melloul,3114,30.3342,-9.4972,0
Toulon,3115,43.1258,5.9306,0
Ciudad del Carmen,3116,18.6333,-91.8333,0
Danbury,3117,41.4016,-73.471,0
Castellón de la Plana,3118,39.9831,-0.0331,0
Peoria,3119,33.7844,-112.2989,0
Oeiras,3120,38.697,-9.3017,0
Dagupan City,3121,16.0333,120.3333,0
Catumbela,3122,-12.4167,13.5333,0
Ereğli,3123,41.2583,31.425,0
Oceanside,3124,33.2247,-117.3083,0
Shibirghān,3125,36.665,65.752,0
Chandannagar,3126,22.8667,88.3833,0
Harar,3127,9.32,42.15,0
Middlesbrough,3128,54.5767,-1.2355,0
Tyre,3129,33.2667,35.2,0
Koronadal,3130,6.5,124.85,0
Olsztyn,3131,53.78,20.4942,0
Cuddalore,3132,11.75,79.75,0
Getafe,3133,40.3047,-3.7311,0
Marāgheh,3134,37.3919,46.2392,0
Ōbiraki,3135,40.57,140.47,0
Tebingtinggi,3136,3.3283,99.1625,0
Comitán,3137,16.2511,-92.1342,0
Takaoka,3138,42.6504,141.55,0
Sīrjān,3139,29.47,55.73,0
Tanauan,3140,14.0833,121.15,0
Menemen,3141,38.6,27.0667,0
Malaybalay,3142,8.1575,125.1278,0
Elk Grove,3143,38.416,-121.3842,0
Syzran,3144,53.1667,48.4667,0
Carúpano,3145,10.6722,-63.2403,0
Saint-Étienne,3146,45.4347,4.3903,0
Luziânia,3147,-16.2528,-47.95,0
Lagos de Moreno,3148,21.3564,-101.9292,0
Albacete,3149,38.9956,-1.8558,0
Ludwigshafen,3150,49.4811,8.4353,0
León,3151,12.4333,-86.8833,0
Chīrāla,3152,15.82,80.35,0
Titāgarh,3153,22.74,88.37,0
Bielsko-Biała,3154,49.8225,19.0444,0
Beppuchō,3155,42.9304,143.17,0
General Mariano Alvarez,3156,14.3,121.0,0
Bytom,3157,50.347,18.923,0
Linjiang,3158,41.8082,126.9137,0
Hạ Long,3159,20.9514,107.0852,0
Deo,3160,24.6561,84.4356,0
Tiantoujiao,3161,23.0236,114.0927,0
Pembroke Pines,3162,26.0128,-80.3382,0
Tlemcen,3163,34.8828,-1.3167,0
Hitachi,3164,36.6,140.65,0
Shāhīn Shahr,3165,32.8639,51.5475,0
Orekhovo-Borisovo Yuzhnoye,3166,55.6029,37.7328,0
Vallejo,3167,38.1133,-122.2358,0
Bertoua,3168,4.5833,13.6833,0
Moca,3169,19.3833,-70.5167,0
Banyuwangi,3170,-8.195,114.3696,0
Mülheim,3171,51.4275,6.8825,0
Sacaba,3172,-17.4042,-66.0408,0
Carpina,3173,-7.8508,-35.2547,0
