,city,country,lat,long,count,articles,urls,source,thumbnail,publishdate
1,Jakarta,Indonesia,-6.2146,106.8451,,,,,,
2,Delhi,India,28.66,77.23,,,,,,
3,Mumbai,India,18.9667,72.8333,,,,,,
4,Manila,Philippines,14.6,120.9833,,,,,,
5,Shanghai,China,31.1667,121.4667,,,,,,
6,São Paulo,Brazil,-23.5504,-46.6339,,,,,,
7,Seoul,"Korea, South",37.56,126.99,,,,,,
8,Mexico City,Mexico,19.4333,-99.1333,,,,,,
9,Guangzhou,China,23.1288,113.259,,,,,,
11,Cairo,Egypt,30.0561,31.2394,,,,,,
12,New York,United States,40.6943,-73.9249,,,,,,
13,Kolkāta,India,22.5411,88.3378,,,,,,
14,Moscow,Russia,55.7558,37.6178,,,,,,
15,Bangkok,Thailand,13.75,100.5167,,,,,,
16,Buenos Aires,Argentina,-34.5997,-58.3819,,,,,,
17,Shenzhen,China,22.535,114.054,,,,,,
18,Dhaka,Bangladesh,23.7289,90.3944,,,,,,
19,Lagos,Nigeria,6.45,3.4,,,,,,
20,Istanbul,Turkey,41.01,28.9603,,,,,,
21,Ōsaka,Japan,34.75,135.4601,,,,,,
22,Karachi,Pakistan,24.86,67.01,,,,,,
23,Bangalore,India,12.9699,77.598,,,,,,
24,Tehran,Iran,35.7,51.4167,,,,,,
25,Kinshasa,Congo (Kinshasa),-4.3233,15.3081,,,,,,
26,Ho Chi Minh City,Vietnam,10.8167,106.6333,,,,,,
27,Los Angeles,United States,34.1139,-118.4068,,,,,,
28,Rio de Janeiro,Brazil,-22.9083,-43.1964,,,,,,
29,Nanyang,China,32.9987,112.5292,,,,,,
30,Baoding,China,38.8671,115.4845,,,,,,
31,Chennai,India,13.0825,80.275,,,,,,
32,Chengdu,China,30.66,104.0633,,,,,,
33,Lahore,Pakistan,31.5497,74.3436,,,,,,
35,London,United Kingdom,51.5072,-0.1275,,,,,,
36,Linyi,China,35.0606,118.3425,,,,,,
37,Tianjin,China,39.1467,117.2056,,,,,,
38,Shijiazhuang,China,38.0422,114.5086,,,,,,
39,Zhoukou,China,33.625,114.6418,,,,,,
40,Lima,Peru,-12.05,-77.0333,,,,,,
41,Hyderābād,India,17.3667,78.4667,,,,,,
42,Handan,China,36.6116,114.4894,,,,,,
43,Bogotá,Colombia,4.6126,-74.0705,,,,,,
44,Weifang,China,36.7167,119.1,,,,,,
45,Nagoya,Japan,35.1167,136.9333,,,,,,
46,Wuhan,China,30.5872,114.2881,,,,,,
47,Heze,China,35.2333,115.4333,,,,,,
48,Ganzhou,China,25.8292,114.9336,,,,,,
49,Tongshan,China,34.261,117.1859,,,,,,
50,Chicago,United States,41.8373,-87.6862,,,,,,
51,Luanda,Angola,-8.8383,13.2344,,,,,,
52,Changsha,China,28.1987,112.9709,,,,,,
53,Fuyang,China,32.8986,115.8045,,,,,,
54,Kuala Lumpur,Malaysia,3.1478,101.6953,,,,,,
55,Jining,China,35.4,116.5667,,,,,,
56,Dongguan,China,23.0475,113.7493,,,,,,
57,Jinan,China,36.6667,116.9833,,,,,,
58,Foshan,China,23.0292,113.1056,,,,,,
59,Hanoi,Vietnam,21.0245,105.8412,,,,,,
60,Pune,India,18.5196,73.8553,,,,,,
61,Chongqing,China,29.5628,106.5528,,,,,,
62,Changchun,China,43.9,125.2,,,,,,
63,Zhumadian,China,32.9773,114.0253,,,,,,
64,Ningbo,China,29.875,121.5492,,,,,,
65,Cangzhou,China,38.3037,116.8452,,,,,,
66,Nanjing,China,32.05,118.7667,,,,,,
67,Hefei,China,31.8639,117.2808,,,,,,
68,Ahmedabad,India,23.03,72.58,,,,,,
69,Hong Kong,Hong Kong,22.305,114.185,,,,,,
70,Zhanjiang,China,21.1967,110.4031,,,,,,
71,Shaoyang,China,27.2418,111.4725,,,,,,
72,Hengyang,China,26.8968,112.5857,,,,,,
73,Khartoum,Sudan,15.6031,32.5265,,,,,,
74,Nantong,China,31.9829,120.8873,,,,,,
75,Yancheng,China,33.3936,120.1339,,,,,,
76,Nanning,China,22.8192,108.315,,,,,,
77,Xi’an,China,34.2667,108.9,,,,,,
78,Shenyang,China,41.8039,123.4258,,,,,,
79,Tangshan,China,39.6292,118.1742,,,,,,
81,Zhengzhou,China,34.7492,113.6605,,,,,,
82,Shangqiu,China,34.4259,115.6467,,,,,,
83,Yantai,China,37.3997,121.2664,,,,,,
84,Riyadh,Saudi Arabia,24.65,46.71,,,,,,
85,Dar es Salaam,Tanzania,-6.8,39.2833,,,,,,
86,Xinyang,China,32.1264,114.0672,,,,,,
87,Shangrao,China,28.4419,117.9633,,,,,,
88,Luoyang,China,34.6587,112.4245,,,,,,
89,Bijie,China,27.3019,105.2863,,,,,,
90,Quanzhou,China,24.9139,118.5858,,,,,,
91,Hangzhou,China,30.25,120.1675,,,,,,
92,Miami,United States,25.7839,-80.2102,,,,,,
93,Huanggang,China,30.45,114.875,,,,,,
94,Maoming,China,21.6618,110.9178,,,,,,
95,Kunming,China,25.0433,102.7061,,,,,,
96,Nanchong,China,30.7991,106.0784,,,,,,
97,Zunyi,China,27.705,106.9336,,,,,,
98,Jieyang,China,23.5533,116.3649,,,,,,
99,Lu’an,China,31.7542,116.5078,,,,,,
100,Yichun,China,27.8041,114.383,,,,,,
101,Madrid,Spain,40.4167,-3.7167,,,,,,
102,Changde,China,29.0397,111.6839,,,,,,
103,Taizhou,China,28.6583,121.4221,,,,,,
104,Liaocheng,China,36.45,115.9833,,,,,,
105,Qujing,China,25.5102,103.8029,,,,,,
106,Sūrat,India,21.17,72.83,,,,,,
107,Baghdad,Iraq,33.35,44.4167,,,,,,
108,Qingdao,China,36.1167,120.4,,,,,,
109,Singapore,Singapore,1.3,103.8,,,,,,
110,Dallas,United States,32.7936,-96.7662,,,,,,
111,Dazhou,China,31.2152,107.4947,,,,,,
112,Suzhou,China,33.6333,116.9683,,,,,,
113,Xiangyang,China,32.0654,112.1531,,,,,,
114,Philadelphia,United States,40.0077,-75.1339,,,,,,
115,Giza,Egypt,29.987,31.2118,,,,,,
117,Nangandao,China,35.2992,113.8851,,,,,,
118,Ankara,Turkey,39.93,32.85,,,,,,
119,Tai’an,China,36.2001,117.0809,,,,,,
120,Yulin,China,22.6293,110.1507,,,,,,
121,Dezhou,China,37.4513,116.3105,,,,,,
122,Houston,United States,29.7863,-95.3889,,,,,,
124,Yongzhou,China,26.4515,111.5953,,,,,,
125,Rangoon,Myanmar,16.8,96.15,,,,,,
126,Toronto,Canada,43.7417,-79.3733,,,,,,
127,Suihua,China,46.6384,126.9808,,,,,,
128,Washington,United States,38.9047,-77.0163,,,,,,
129,Qiqihar,China,47.3398,123.9512,,,,,,
130,Jinhua,China,29.1046,119.6494,,,,,,
131,Saint Petersburg,Russia,59.95,30.3167,,,,,,
132,Shantou,China,23.3735,116.6941,,,,,,
134,Weinan,China,34.4996,109.4684,,,,,,
135,Suqian,China,33.9331,118.2831,,,,,,
136,Guadalajara,Mexico,20.6767,-103.3475,,,,,,
138,Fuzhou,China,26.0769,119.2917,,,,,,
139,Zhaotong,China,27.3328,103.7144,,,,,,
140,Pudong,China,31.2231,121.5397,,,,,,
141,Belo Horizonte,Brazil,-19.9281,-43.9419,,,,,,
142,Zhangzhou,China,24.5093,117.6612,,,,,,
143,Bozhou,China,33.8626,115.7742,,,,,,
144,Melbourne,Australia,-37.8136,144.9631,,,,,,
145,Nanchang,China,28.6842,115.8872,,,,,,
146,Xianyang,China,34.35,108.7167,,,,,,
148,Surabaya,Indonesia,-7.2458,112.7378,,,,,,
149,Abidjan,Côte D’Ivoire,5.3364,-4.0267,,,,,,
150,Huaihua,China,27.5494,109.9592,,,,,,
151,Ji’an,China,27.1172,114.9793,,,,,,
152,Mianyang,China,31.4669,104.7385,,,,,,
153,Xiaoganzhan,China,30.9273,113.911,,,,,,
154,Shaoxing,China,30.0,120.5833,,,,,,
155,Alexandria,Egypt,31.2,29.9167,,,,,,
156,Yuncheng,China,35.0304,110.998,,,,,,
157,Pingdingshan,China,33.735,113.2999,,,,,,
158,Huizhou,China,23.1115,114.4152,,,,,,
159,Huai’an,China,33.5,119.1331,,,,,,
160,Xinpu,China,34.5906,119.1801,,,,,,
161,Chenzhou,China,25.7989,113.0267,,,,,,
162,Guilin,China,25.2667,110.2833,,,,,,
163,Jiujiang,China,29.7048,116.0021,,,,,,
164,Anqing,China,30.5,117.0333,,,,,,
165,Boston,United States,42.3188,-71.0846,,,,,,
166,Huanglongsi,China,34.7936,114.3403,,,,,,
167,Jiangmen,China,22.5833,113.0833,,,,,,
168,Changzhou,China,31.8122,119.9692,,,,,,
169,Barcelona,Spain,41.3825,2.1769,,,,,,
170,Wuxi,China,31.5667,120.2833,,,,,,
171,Zibo,China,36.7831,118.0497,,,,,,
172,Jiaxing,China,30.7522,120.75,,,,,,
173,Dalian,China,38.9,121.6,,,,,,
174,Hengshui,China,37.7348,115.686,,,,,,
175,Harbin,China,45.75,126.6333,,,,,,
176,Yangzhou,China,32.3912,119.4363,,,,,,
177,Yibin,China,28.7596,104.64,,,,,,
178,Johannesburg,South Africa,-26.2044,28.0416,,,,,,
179,Yiyang,China,28.5833,112.3333,,,,,,
180,Meizhou,China,24.2998,116.1191,,,,,,
181,Chifeng,China,42.2663,118.9223,,,,,,
182,Casablanca,Morocco,33.5992,-7.62,,,,,,
183,Guiyang,China,26.5794,106.7078,,,,,,
184,Langfang,China,39.5196,116.7006,,,,,,
185,Zhangjiakou,China,40.8108,114.8811,,,,,,
186,İzmir,Turkey,38.4127,27.1384,,,,,,
187,Linfen,China,36.0812,111.5087,,,,,,
188,Wenzhou,China,27.9991,120.6561,,,,,,
189,Monterrey,Mexico,25.6667,-100.3,,,,,,
190,Luzhou,China,28.8918,105.4409,,,,,,
191,Jiangguanchi,China,34.0244,113.8201,,,,,,
192,Neijiang,China,29.5872,105.0635,,,,,,
193,Phoenix,United States,33.5722,-112.0891,,,,,,
194,Yanjiang,China,30.1256,104.6397,,,,,,
195,Zhaoqing,China,23.05,112.4667,,,,,,
196,Xiaoxita,China,30.7083,111.2803,,,,,,
197,Guigang,China,23.0961,109.6092,,,,,,
198,Xiamen,China,24.4797,118.0819,,,,,,
199,Chuzhou,China,32.3062,118.3115,,,,,,
201,Zhuzhou,China,27.8407,113.1469,,,,,,
202,Amman,Jordan,31.95,35.9333,,,,,,
204,Loudi,China,27.7378,111.9974,,,,,,
205,Deyang,China,31.1289,104.395,,,,,,
206,Qingyuan,China,23.6842,113.0507,,,,,,
207,Wuhu,China,31.334,118.3622,,,,,,
208,Hechi,China,23.0965,109.6091,,,,,,
209,Seattle,United States,47.6211,-122.3244,,,,,,
210,Binzhou,China,37.3806,118.0125,,,,,,
211,Yokohama,Japan,35.4333,139.6333,,,,,,
212,Liuzhou,China,24.3264,109.4281,,,,,,
213,Baojishi,China,34.3609,107.1751,,,,,,
214,Guang’an,China,30.4673,106.6336,,,,,,
215,Hanzhong,China,33.0794,107.026,,,,,,
216,Kabul,Afghanistan,34.5328,69.1658,,,,,,
217,Zaozhuang,China,34.8667,117.55,,,,,,
218,Berlin,Germany,52.5167,13.3833,,,,,,
219,Anshan,China,41.1066,122.9895,,,,,,
220,Lanzhou,China,36.0617,103.8318,,,,,,
221,Chengde,China,40.9739,117.9322,,,,,,
222,San Francisco,United States,37.7562,-122.443,,,,,,
223,Puyang,China,35.7639,115.03,,,,,,
224,Suining,China,30.5098,105.5737,,,,,,
225,Jiaozuo,China,35.229,113.2304,,,,,,
226,Bengbu,China,32.9354,117.3531,,,,,,
227,Montréal,Canada,45.5089,-73.5617,,,,,,
228,Detroit,United States,42.3834,-83.1024,,,,,,
229,Baicheng,China,23.901,106.6194,,,,,,
230,Busan,"Korea, South",35.1,129.0403,,,,,,
231,Algiers,Algeria,36.7764,3.0586,,,,,,
232,Qincheng,China,34.5809,105.7311,,,,,,
233,Taiyuan,China,37.8733,112.5425,,,,,,
234,Shiyan,China,32.6351,110.7755,,,,,,
235,Lucknow,India,26.847,80.947,,,,,,
236,Chaoyang,China,41.5757,120.4486,,,,,,
238,Leshan,China,29.5854,103.7575,,,,,,
239,Yulinshi,China,38.2655,109.7388,,,,,,
240,Siping,China,43.1715,124.3644,,,,,,
241,Zhongshan,China,22.5333,113.35,,,,,,
242,Changzhi,China,36.1953,113.097,,,,,,
243,San Diego,United States,32.8312,-117.1225,,,,,,
244,Faisalabad,Pakistan,31.418,73.079,,,,,,
245,Santa Cruz,Bolivia,-17.7892,-63.1975,,,,,,
246,Qinhuangdao,China,39.9398,119.5881,,,,,,
247,Bazhou,China,31.8576,106.7559,,,,,,
248,Zhenjiang,China,32.2109,119.4551,,,,,,
249,Ürümqi,China,43.8225,87.6125,,,,,,
250,Tongliao,China,43.6172,122.264,,,,,,
251,Heyuan,China,23.7503,114.6923,,,,,,
252,Tongren,China,27.7233,109.1885,,,,,,
253,Qinzhou,China,21.95,108.6167,,,,,,
254,Jaipur,India,26.9167,75.8667,,,,,,
255,Xinzhou,China,38.4178,112.7233,,,,,,
256,Addis Ababa,Ethiopia,9.0272,38.7369,,,,,,
257,Meishan,China,30.0575,103.8381,,,,,,
258,Brasília,Brazil,-15.7939,-47.8828,,,,,,
259,Mashhad,Iran,36.3069,59.6042,,,,,,
260,Jinzhou,China,41.1144,121.1292,,,,,,
261,Tieling,China,42.2841,123.8365,,,,,,
262,Shaoguan,China,24.8011,113.5927,,,,,,
263,Kuwait City,Kuwait,29.375,47.98,,,,,,
264,Shanwei,China,22.7664,115.3331,,,,,,
265,Minneapolis,United States,44.9635,-93.2678,,,,,,
266,Kyiv,Ukraine,50.45,30.5236,,,,,,
268,Quezon City,Philippines,14.6333,121.0333,,,,,,
269,Dingxi,China,35.5806,104.6263,,,,,,
270,Incheon,"Korea, South",37.4639,126.6486,,,,,,
271,Bursa,Turkey,40.1833,29.0667,,,,,,
272,Ningde,China,26.6667,119.5167,,,,,,
273,Tampa,United States,27.9942,-82.4451,,,,,,
274,Daqing,China,46.5979,125.008,,,,,,
275,Birmingham,United Kingdom,52.48,-1.9025,,,,,,
276,Putian,China,25.4394,119.0103,,,,,,
277,Huzhou,China,30.8695,120.0958,,,,,,
279,Wuzhou,China,23.4833,111.3167,,,,,,
280,Xiangtan,China,27.8431,112.9228,,,,,,
281,Denver,United States,39.7621,-104.8759,,,,,,
282,Rome,Italy,41.8931,12.4828,,,,,,
283,La Paz,Bolivia,-16.4942,-68.1475,,,,,,
284,Pyongyang,"Korea, North",39.03,125.73,,,,,,
285,Kano,Nigeria,12.0,8.5167,,,,,,
286,Taichung,Taiwan,24.15,120.6667,,,,,,
287,Omdurman,Sudan,15.6835,32.4629,,,,,,
288,Zigong,China,29.3498,104.7645,,,,,,
289,Mudanjiang,China,44.5861,129.5997,,,,,,
290,Huludao,China,40.7094,120.8378,,,,,,
291,Kaohsiung,Taiwan,22.6167,120.3,,,,,,
292,Guayaquil,Ecuador,-2.1833,-79.8833,,,,,,
293,Rizhao,China,35.4164,119.4331,,,,,,
294,Manchester,United Kingdom,53.4794,-2.2453,,,,,,
295,Cawnpore,India,26.4725,80.3311,,,,,,
296,Baotou,China,40.6562,109.8345,,,,,,
297,Taipei,Taiwan,25.0478,121.5319,,,,,,
298,Nanping,China,26.6448,118.1728,,,,,,
299,Chaozhou,China,23.67,116.63,,,,,,
300,Longyan,China,25.0881,117.0244,,,,,,
301,Ibadan,Nigeria,7.3964,3.9167,,,,,,
302,Hohhot,China,40.8151,111.6629,,,,,,
303,Antananarivo,Madagascar,-18.9386,47.5214,,,,,,
304,Longba,China,33.535,105.349,,,,,,
305,Weihai,China,37.5,122.1,,,,,,
306,Chattogram,Bangladesh,22.335,91.8325,,,,,,
307,Santo Domingo,Dominican Republic,18.4764,-69.8933,,,,,,
308,Xuanzhou,China,30.9475,118.7518,,,,,,
309,Sanming,China,26.2658,117.6302,,,,,,
310,Brooklyn,United States,40.6501,-73.9496,,,,,,
311,Yangjiang,China,21.8556,111.9627,,,,,,
312,Medellín,Colombia,6.2447,-75.5748,,,,,,
313,Yunfu,China,22.9242,112.0353,,,,,,
314,Brisbane,Australia,-27.4678,153.0281,,,,,,
315,Baoshan,China,25.1211,99.169,,,,,,
316,Dubai,United Arab Emirates,25.2697,55.3094,,,,,,
317,Luohe,China,33.583,114.0109,,,,,,
318,Qinbaling,China,35.7278,107.64,,,,,,
319,Mirzāpur,India,25.15,82.58,,,,,,
320,Guangyuan,China,32.4353,105.8398,,,,,,
322,Huangshi,China,30.2018,115.0326,,,,,,
323,Daegu,"Korea, South",35.8667,128.6,,,,,,
324,Fortaleza,Brazil,-3.7275,-38.5275,,,,,,
325,Guatemala City,Guatemala,14.6099,-90.5252,,,,,,
326,Yaoundé,Cameroon,3.8578,11.5181,,,,,,
327,Douala,Cameroon,4.05,9.7,,,,,,
328,Jilin,China,43.85,126.55,,,,,,
329,Lianshan,China,40.7503,120.83,,,,,,
330,Lincang,China,23.8864,100.0871,,,,,,
331,Antalya,Turkey,36.9081,30.6956,,,,,,
332,Tashkent,Uzbekistan,41.3,69.2667,,,,,,
333,Bandung,Indonesia,-6.95,107.5667,,,,,,
334,Nāgpur,India,21.1539,79.0831,,,,,,
335,Huainan,China,32.4831,117.0164,,,,,,
336,Dandong,China,40.1167,124.3833,,,,,,
337,Shangzhou,China,33.868,109.9244,,,,,,
338,Bekasi,Indonesia,-6.2333,107.0,,,,,,
339,Ghāziābād,India,28.6667,77.4167,,,,,,
340,Tijuana,Mexico,32.525,-117.0333,,,,,,
341,Jiamusi,China,46.8081,130.3653,,,,,,
342,Accra,Ghana,5.6037,-0.187,,,,,,
343,Yuxi,China,24.3495,102.5432,,,,,,
344,Anshun,China,26.2456,105.934,,,,,,
345,Vancouver,Canada,49.25,-123.1,,,,,,
346,Tangerang,Indonesia,-6.1783,106.6319,,,,,,
347,Konya,Turkey,37.8714,32.4847,,,,,,
348,Queens,United States,40.7498,-73.7976,,,,,,
349,Yingkou,China,40.6653,122.2297,,,,,,
350,Adana,Turkey,37.0,35.325,,,,,,
351,Medan,Indonesia,3.6667,98.6667,,,,,,
352,Sanmenxia,China,34.7736,111.195,,,,,,
353,Indore,India,22.7206,75.8472,,,,,,
354,Ma’anshan,China,31.7135,118.3605,,,,,,
355,Pingliang,China,35.5412,106.6819,,,,,,
356,Quzhou,China,28.9545,118.8763,,,,,,
358,Gaoping,China,30.7804,106.13,,,,,,
359,Huaibei,China,33.9562,116.789,,,,,,
360,Xining,China,36.6239,101.7787,,,,,,
361,Harare,Zimbabwe,-17.8292,31.0522,,,,,,
362,Yan’an,China,36.5952,109.4863,,,,,,
363,Havana,Cuba,23.1367,-82.3589,,,,,,
364,Phnom Penh,Cambodia,11.5696,104.921,,,,,,
365,Fukuoka,Japan,33.6,130.4167,,,,,,
366,Mogadishu,Somalia,2.0408,45.3425,,,,,,
367,Jincheng,China,35.4906,112.8483,,,,,,
368,Puning,China,23.2993,116.1586,,,,,,
369,Lishui,China,28.45,119.9167,,,,,,
370,Qingyang,China,24.8141,118.5792,,,,,,
371,Riverside,United States,33.9381,-117.3948,,,,,,
372,Baltimore,United States,39.3051,-76.6144,,,,,,
373,Haiphong,Vietnam,20.8,106.6667,,,,,,
374,Las Vegas,United States,36.2333,-115.2654,,,,,,
375,Laibin,China,23.7333,109.2333,,,,,,
376,Rawalpindi,Pakistan,33.6007,73.0679,,,,,,
377,Kumasi,Ghana,6.6833,-1.6167,,,,,,
378,Portland,United States,45.5372,-122.65,,,,,,
379,Vadodara,India,22.3,73.2,,,,,,
380,Perth,Australia,-31.9522,115.8589,,,,,,
381,San Antonio,United States,29.4658,-98.5253,,,,,,
382,Vishākhapatnam,India,17.7333,83.3167,,,,,,
383,Gujranwala,Pakistan,32.15,74.1833,,,,,,
384,Gaziantep,Turkey,37.0667,37.3833,,,,,,
385,Fushun,China,41.8708,123.8917,,,,,,
386,St. Louis,United States,38.6358,-90.2451,,,,,,
387,Bamako,Mali,12.6458,-7.9922,,,,,,
388,Quito,Ecuador,-0.2186,-78.5097,,,,,,
389,Minsk,Belarus,53.9022,27.5618,,,,,,
390,Pingxiang,China,27.6333,113.85,,,,,,
391,Chongzuo,China,22.4167,107.3667,,,,,,
392,Şanlıurfa,Turkey,37.1583,38.7917,,,,,,
393,Kananga,Congo (Kinshasa),-5.897,22.4488,,,,,,
394,Peshawar,Pakistan,34.0,71.5,,,,,,
395,Sapporo,Japan,43.0621,141.3544,,,,,,
396,Hezhou,China,24.4164,111.5478,,,,,,
397,Jixi,China,45.2937,130.965,,,,,,
398,Caracas,Venezuela,10.5,-66.9333,,,,,,
399,Fuxin,China,42.0127,121.6486,,,,,,
400,Aleppo,Syria,36.2,37.15,,,,,,
401,Almaty,Kazakhstan,43.25,76.9,,,,,,
402,Dayr az Zawr,Syria,35.3333,40.15,,,,,,
403,Vienna,Austria,48.2083,16.3731,,,,,,
404,Leeds,United Kingdom,53.7997,-1.5492,,,,,,
405,Sacramento,United States,38.5667,-121.4683,,,,,,
406,Blantyre,Malawi,-15.7861,35.0058,,,,,,
407,Tainan,Taiwan,22.9833,120.1833,,,,,,
408,Zhuhai,China,22.2769,113.5678,,,,,,
409,Bucharest,Romania,44.4,26.0833,,,,,,
410,Wuwei,China,37.9278,102.6329,,,,,,
411,Bhopāl,India,23.25,77.4167,,,,,,
412,Curitiba,Brazil,-25.4297,-49.2719,,,,,,
413,Multan,Pakistan,30.1978,71.4711,,,,,,
414,Xiping,China,40.08,113.3,,,,,,
415,Asunción,Paraguay,-25.3,-57.6333,,,,,,
416,Saidu Sharif,Pakistan,34.75,72.3572,,,,,,
417,Hamburg,Germany,53.55,10.0,,,,,,
418,Meru,Kenya,0.05,37.65,,,,,,
419,Brazzaville,Congo (Brazzaville),-4.2667,15.2833,,,,,,
421,Mersin,Turkey,36.8,34.6167,,,,,,
422,Kyōto,Japan,35.0111,135.7669,,,,,,
423,Manaus,Brazil,-3.1,-60.0167,,,,,,
424,Liaoyang,China,41.2643,123.1772,,,,,,
425,Baiyin,China,36.5448,104.1766,,,,,,
426,San Jose,United States,37.3019,-121.8486,,,,,,
427,Warsaw,Poland,52.2167,21.0333,,,,,,
428,Shengli,China,37.45,118.4667,,,,,,
429,Lubumbashi,Congo (Kinshasa),-11.6697,27.4581,,,,,,
430,Haikou,China,20.02,110.32,,,,,,
431,Damascus,Syria,33.5131,36.2919,,,,,,
432,Shuyangzha,China,34.1299,118.7734,,,,,,
433,Brussels,Belgium,50.8333,4.3333,,,,,,
434,Eşfahān,Iran,32.6447,51.6675,,,,,,
435,Budapest,Hungary,47.4983,19.0408,,,,,,
436,Heihe,China,50.2458,127.4886,,,,,,
437,Lusaka,Zambia,-15.4167,28.2833,,,,,,
438,Hyderabad City,Pakistan,25.3792,68.3683,,,,,,
439,Diyarbakır,Turkey,37.9108,40.2367,,,,,,
440,Chinchvad,India,18.6278,73.8131,,,,,,
441,Shuozhou,China,39.3408,112.4292,,,,,,
442,Cleveland,United States,41.4767,-81.6804,,,,,,
443,Pittsburgh,United States,40.4396,-79.9762,,,,,,
444,Patna,India,25.61,85.1414,,,,,,
445,Mosul,Iraq,36.3667,43.1167,,,,,,
447,Sanzhou,China,30.82,108.4,,,,,,
448,Mecca,Saudi Arabia,21.4225,39.8261,,,,,,
449,Conakry,Guinea,9.5092,-13.7122,,,,,,
450,Kampala,Uganda,0.3136,32.5811,,,,,,
451,Ecatepec,Mexico,19.6097,-99.06,,,,,,
452,Cincinnati,United States,39.1413,-84.5061,,,,,,
453,Makassar,Indonesia,-5.1331,119.4136,,,,,,
454,Yushan,China,31.3867,120.9766,,,,,,
455,Ludhiāna,India,30.9083,75.8486,,,,,,
456,Newcastle,United Kingdom,55.0077,-1.6578,,,,,,
457,Depok,Indonesia,-6.394,106.8225,,,,,,
458,Zhongli,Taiwan,24.965,121.2168,,,,,,
459,Kansas City,United States,39.1239,-94.5541,,,,,,
460,Ouagadougou,Burkina Faso,12.3572,-1.5353,,,,,,
461,Davao,Philippines,7.0667,125.6,,,,,,
462,Manhattan,United States,40.7834,-73.9662,,,,,,
463,Semarang,Indonesia,-6.9667,110.4167,,,,,,
464,Yinchuan,China,38.4795,106.2254,,,,,,
465,Caloocan City,Philippines,14.65,120.9667,,,,,,
466,Novosibirsk,Russia,55.0333,82.9167,,,,,,
467,Chengtangcun,China,35.0833,117.15,,,,,,
468,Āgra,India,27.18,78.02,,,,,,
469,Karaj,Iran,35.8327,50.9915,,,,,,
470,Indianapolis,United States,39.7771,-86.1458,,,,,,
471,Jingdezhen,China,29.2942,117.2036,,,,,,
472,Puebla,Mexico,19.0333,-98.1833,,,,,,
473,Kalyān,India,19.2502,73.1602,,,,,,
474,Madurai,India,9.9197,78.1194,,,,,,
475,Benxi,China,41.292,123.761,,,,,,
476,Jamshedpur,India,22.8,86.1833,,,,,,
477,Recife,Brazil,-8.0539,-34.8808,,,,,,
478,Columbus,United States,39.9862,-82.985,,,,,,
479,Tabrīz,Iran,38.0833,46.2833,,,,,,
480,Maracaibo,Venezuela,10.6333,-71.6333,,,,,,
481,Zhangjiajie,China,29.1255,110.4844,,,,,,
482,Beihai,China,21.4667,109.1,,,,,,
483,Shuangyashan,China,46.6388,131.1545,,,,,,
484,Kōbe,Japan,34.6913,135.183,,,,,,
486,Yucheng,China,29.9888,103.0007,,,,,,
487,Changshu,China,31.65,120.7333,,,,,,
488,Lianjiang,China,21.6146,110.2794,,,,,,
489,Ximeicun,China,24.9633,118.3811,,,,,,
490,Jianguang,China,28.1958,115.7833,,,,,,
491,Madīnat as Sādis min Uktūbar,Egypt,29.9361,30.9269,,,,,,
492,Xushan,China,30.1697,121.2665,,,,,,
493,Belém,Brazil,-1.4558,-48.5039,,,,,,
494,Guiping,China,23.4,110.0833,,,,,,
495,Leizhou,China,20.9147,110.0806,,,,,,
496,Gwangju,"Korea, South",35.1667,126.9167,,,,,,
497,Nāsik,India,20.0,73.7833,,,,,,
498,Porto Alegre,Brazil,-30.0328,-51.23,,,,,,
499,Valencia,Venezuela,10.1667,-68.0,,,,,,
500,Onitsha,Nigeria,6.1667,6.7833,,,,,,
501,Virginia Beach,United States,36.7335,-76.0435,,,,,,
502,Daejeon,"Korea, South",36.351,127.385,,,,,,
503,Munich,Germany,48.1372,11.5755,,,,,,
504,Auckland,New Zealand,-36.85,174.7833,,,,,,
505,Yekaterinburg,Russia,56.8356,60.6128,,,,,,
506,Huangshan,China,29.7132,118.3151,,,,,,
507,Huazhou,China,32.6889,112.0447,,,,,,
508,Shīrāz,Iran,29.61,52.5425,,,,,,
509,Pizhou,China,34.3422,118.0097,,,,,,
510,Palembang,Indonesia,-2.9833,104.7644,,,,,,
511,León de los Aldama,Mexico,21.1167,-101.6833,,,,,,
512,El Kelaa des Srarhna,Morocco,32.05,-7.4,,,,,,
513,Kharkiv,Ukraine,50.0,36.2292,,,,,,
514,Kawanakajima,Japan,35.53,139.705,,,,,,
515,Yangshe,China,31.8775,120.5512,,,,,,
516,Chizhou,China,30.6583,117.4849,,,,,,
517,Guyuan,China,36.008,106.2782,,,,,,
518,Rui’an,China,27.778,120.6526,,,,,,
519,Birstall,United Kingdom,52.6736,-1.12,,,,,,
520,Muscat,Oman,23.6139,58.5922,,,,,,
521,Hebi,China,35.7497,114.2887,,,,,,
522,Bronx,United States,40.8501,-73.8662,,,,,,
523,Gaozhou,China,21.9135,110.8481,,,,,,
524,The Hague,Netherlands,52.0767,4.2986,,,,,,
525,Owerri,Nigeria,5.4833,7.0333,,,,,,
526,Sharjah,United Arab Emirates,25.3575,55.3919,,,,,,
527,Farīdābād,India,28.4333,77.3167,,,,,,
528,Ulaanbaatar,Mongolia,47.9203,106.9172,,,,,,
529,Goiânia,Brazil,-16.6806,-49.2564,,,,,,
530,Kayseri,Turkey,38.7333,35.4833,,,,,,
531,Yueqing,China,28.1188,120.9621,,,,,,
532,Belgrade,Serbia,44.8167,20.4667,,,,,,
533,Pingdu,China,36.7833,119.9556,,,,,,
535,Aurangābād,India,19.88,75.32,,,,,,
536,Yutan,China,28.3147,112.554,,,,,,
537,Wenling,China,28.3797,121.3718,,,,,,
538,Milwaukee,United States,43.0642,-87.9673,,,,,,
540,Adelaide,Australia,-34.9289,138.6011,,,,,,
541,Prague,Czechia,50.0833,14.4167,,,,,,
542,Samsun,Turkey,41.2867,36.33,,,,,,
543,Rājkot,India,22.2969,70.7984,,,,,,
544,Liangshi,China,27.2578,111.7351,,,,,,
545,Khulna,Bangladesh,22.8167,89.55,,,,,,
546,Córdoba,Argentina,-31.4167,-64.1833,,,,,,
547,Guarulhos,Brazil,-23.4667,-46.5333,,,,,,
548,Juárez,Mexico,31.7386,-106.487,,,,,,
549,Saitama,Japan,35.8617,139.6453,,,,,,
550,Montevideo,Uruguay,-34.8667,-56.1667,,,,,,
551,Mbuji-Mayi,Congo (Kinshasa),-6.1209,23.5967,,,,,,
552,Fuqing,China,25.7232,119.3735,,,,,,
553,Xintai,China,35.91,117.78,,,,,,
555,Hiroshima,Japan,34.4,132.45,,,,,,
556,Meerut,India,28.99,77.7,,,,,,
557,Yushu,China,44.8249,126.5451,,,,,,
558,Rongcheng,China,26.2312,104.0966,,,,,,
560,Yangquan,China,37.8576,113.5762,,,,,,
561,Haicheng,China,40.8523,122.7474,,,,,,
562,Yingtan,China,28.2333,117.0,,,,,,
563,Huaiyin,China,33.58,119.03,,,,,,
564,Wuzhong,China,37.9874,106.1919,,,,,,
565,Barranquilla,Colombia,10.9639,-74.7964,,,,,,
566,Jabalpur,India,23.1667,79.9333,,,,,,
567,Thāne,India,19.18,72.9633,,,,,,
568,Zhangye,China,38.9355,100.4553,,,,,,
569,Rucheng,China,32.3852,120.5634,,,,,,
570,Nizhniy Novgorod,Russia,56.3269,44.0075,,,,,,
571,Comayagüela,Honduras,14.0833,-87.2167,,,,,,
573,Dhanbād,India,23.7928,86.435,,,,,,
575,Laiwu,China,36.1833,117.6667,,,,,,
576,Jingling,China,30.6667,113.1667,,,,,,
577,Kazan,Russia,55.7908,49.1144,,,,,,
578,Dayan,China,26.8808,100.2208,,,,,,
579,Suwon,"Korea, South",37.2858,127.01,,,,,,
580,Jiangyin,China,31.9087,120.2653,,,,,,
581,Yongcheng,China,33.9317,116.4459,,,,,,
582,Calgary,Canada,51.05,-114.0667,,,,,,
583,Cần Thơ,Vietnam,10.0333,105.7833,,,,,,
584,Abuja,Nigeria,9.0556,7.4914,,,,,,
585,Yiwu,China,29.3081,120.0698,,,,,,
586,Mandalay,Myanmar,21.9769,96.0869,,,,,,
587,Beidao,China,34.6,105.92,,,,,,
588,Al Başrah,Iraq,30.4889,47.81,,,,,,
589,Shuangshui,China,26.5944,104.8333,,,,,,
590,Vila Velha,Brazil,3.2167,-51.2167,,,,,,
591,Allahābād,India,25.455,81.84,,,,,,
592,Vārānasi,India,25.3189,83.0128,,,,,,
593,Chelyabinsk,Russia,55.15,61.4,,,,,,
594,Mombasa,Kenya,-4.05,39.6667,,,,,,
595,Providence,United States,41.823,-71.4187,,,,,,
597,Maiduguri,Nigeria,11.8333,13.15,,,,,,
598,Maputo,Mozambique,-25.9153,32.5764,,,,,,
600,Benin City,Nigeria,6.3176,5.6145,,,,,,
601,Xinyu,China,27.795,114.9242,,,,,,
602,Pikine,Senegal,14.75,-17.4,,,,,,
603,Ahvāz,Iran,31.3203,48.6692,,,,,,
604,Dublin,Ireland,53.3497,-6.2603,,,,,,
605,Jacksonville,United States,30.3322,-81.6749,,,,,,
607,Srīnagar,India,34.0911,74.8061,,,,,,
608,Omsk,Russia,54.9667,73.3833,,,,,,
609,Cilacap,Indonesia,-7.7167,109.017,,,,,,
610,Bandar Lampung,Indonesia,-5.4294,105.2625,,,,,,
611,Samara,Russia,53.1833,50.1167,,,,,,
612,Guankou,China,28.1417,113.625,,,,,,
613,Ulsan,"Korea, South",35.55,129.3167,,,,,,
614,Dingzhou,China,38.5158,114.9845,,,,,,
615,Campinas,Brazil,-22.9009,-47.0573,,,,,,
616,Lianyuan,China,27.6961,111.6659,,,,,,
618,Kaiyuan,China,36.0656,113.8153,,,,,,
619,Nay Pyi Taw,Myanmar,19.7475,96.115,,,,,,
620,Dakar,Senegal,14.7319,-17.4572,,,,,,
621,Zhuji,China,29.7169,120.2314,,,,,,
622,Kigali,Rwanda,-1.9536,30.0606,,,,,,
623,Zapopan,Mexico,20.7167,-103.4,,,,,,
624,Leiyang,China,26.4179,112.8457,,,,,,
626,Dadukou,China,26.5849,101.7149,,,,,,
627,Xiantao,China,30.3833,113.4,,,,,,
628,Amritsar,India,31.6167,74.85,,,,,,
629,Callao,Peru,-12.0611,-77.1333,,,,,,
630,Alīgarh,India,27.88,78.08,,,,,,
631,Yingchuan,China,34.1511,113.4733,,,,,,
632,Tegucigalpa,Honduras,14.0942,-87.2067,,,,,,
633,Ciudad Nezahualcóyotl,Mexico,19.41,-99.03,,,,,,
634,Tripoli,Libya,32.8752,13.1875,,,,,,
635,Rostov,Russia,47.2333,39.7167,,,,,,
636,Nezahualcóyotl,Mexico,19.4,-98.9889,,,,,,
637,Bhiwandi,India,19.3,73.0667,,,,,,
638,Zhoushan,China,30.0162,122.0988,,,,,,
639,Tbilisi,Georgia,41.7225,44.7925,,,,,,
642,Sevilla,Spain,37.39,-5.99,,,,,,
643,Mexicali,Mexico,32.6633,-115.4678,,,,,,
644,Biên Hòa,Vietnam,10.9277,106.8681,,,,,,
645,Gwalior,India,26.215,78.1931,,,,,,
646,Ankang,China,32.6877,109.0235,,,,,,
647,Ikare,Nigeria,7.5304,5.76,,,,,,
648,Huambo,Angola,-12.7667,15.7333,,,,,,
649,Hegang,China,47.3139,130.2775,,,,,,
650,Salt Lake City,United States,40.7777,-111.9306,,,,,,
651,Bhilai,India,21.2167,81.4333,,,,,,
652,Yuyao,China,30.0372,121.1546,,,,,,
653,N’Djamena,Chad,12.11,15.05,,,,,,
654,Hanchuan,China,30.652,113.8274,,,,,,
655,Gongzhuling,China,43.5036,124.8088,,,,,,
656,Irbid,Jordan,32.5556,35.85,,,,,,
657,Hāora,India,22.59,88.31,,,,,,
658,Cologne,Germany,50.9422,6.9578,,,,,,
659,Krasnoyarsk,Russia,56.0167,92.8667,,,,,,
660,Yicheng,China,31.3697,119.8239,,,,,,
661,São Gonçalo,Brazil,-22.8269,-43.0539,,,,,,
662,Nashville,United States,36.1715,-86.7843,,,,,,
663,Yerevan,Armenia,40.1814,44.5144,,,,,,
664,Rānchi,India,23.3556,85.3347,,,,,,
665,Nur-Sultan,Kazakhstan,51.1333,71.4333,,,,,,
666,Nouakchott,Mauritania,18.0858,-15.9785,,,,,,
667,Vereeniging,South Africa,-26.6736,27.9319,,,,,,
669,São Luís,Brazil,-2.53,-44.3028,,,,,,
670,San Pedro Sula,Honduras,15.5,-88.0333,,,,,,
671,Taixing,China,32.1724,120.0142,,,,,,
672,Memphis,United States,35.1046,-89.9773,,,,,,
673,Goyang,"Korea, South",37.6564,126.835,,,,,,
674,Bezwāda,India,16.5167,80.6167,,,,,,
675,Edmonton,Canada,53.5344,-113.4903,,,,,,
676,Mizhou,China,35.99,119.3801,,,,,,
677,Tunis,Tunisia,36.8008,10.18,,,,,,
678,Xishan,China,27.6609,113.4946,,,,,,
679,Ezhou,China,30.3972,114.8842,,,,,,
680,Barquisimeto,Venezuela,10.0678,-69.3467,,,,,,
681,Sendai,Japan,38.2683,140.8694,,,,,,
682,Voronezh,Russia,51.6717,39.2106,,,,,,
683,Perm,Russia,58.0139,56.2489,,,,,,
684,Changwon,"Korea, South",35.2281,128.6811,,,,,,
685,Zhongwei,China,37.5139,105.1884,,,,,,
686,Shouguang,China,36.8833,118.7333,,,,,,
687,Bogor,Indonesia,-6.6,106.8,,,,,,
688,Raleigh,United States,35.8325,-78.6435,,,,,,
689,Cartagena,Colombia,10.4236,-75.5253,,,,,,
690,Chandīgarh,India,30.7353,76.7911,,,,,,
691,Bishkek,Kyrgyzstan,42.8667,74.5667,,,,,,
692,Matola,Mozambique,-25.9667,32.4667,,,,,,
693,Ogbomoso,Nigeria,8.1333,4.25,,,,,,
694,Ashgabat,Turkmenistan,37.95,58.3833,,,,,,
695,Maceió,Brazil,-9.6658,-35.735,,,,,,
696,Niamey,Niger,13.5086,2.1111,,,,,,
697,Managua,Nicaragua,12.15,-86.2667,,,,,,
698,Patam,Indonesia,1.0678,104.0167,,,,,,
699,Tekirdağ,Turkey,40.9833,27.5167,,,,,,
700,Shubrā al Khaymah,Egypt,30.1286,31.2422,,,,,,
701,Linhai,China,28.8523,121.1409,,,,,,
702,Monrovia,Liberia,6.3106,-10.8047,,,,,,
703,Wafangdian,China,39.6271,121.9972,,,,,,
704,Zhongxiang,China,31.169,112.5853,,,,,,
705,Odesa,Ukraine,46.4775,30.7326,,,,,,
706,Shymkent,Kazakhstan,42.3,69.6,,,,,,
707,New Orleans,United States,30.0687,-89.9288,,,,,,
708,Thủ Đức,Vietnam,10.8199,106.7909,,,,,,
709,Volgograd,Russia,48.7086,44.5147,,,,,,
710,Port-au-Prince,Haiti,18.5425,-72.3386,,,,,,
711,Islamabad,Pakistan,33.6989,73.0369,,,,,,
712,Mysore,India,12.3086,76.6531,,,,,,
713,Xinyi,China,22.3559,110.9369,,,,,,
714,Kathmandu,Nepal,27.7167,85.3667,,,,,,
715,Raipur,India,21.2379,81.6337,,,,,,
716,Nice,France,43.7034,7.2663,,,,,,
717,Arequipa,Peru,-16.3988,-71.5369,,,,,,
718,Port Harcourt,Nigeria,4.75,7.0,,,,,,
719,Louisville,United States,38.1663,-85.6485,,,,,,
720,Zaoyang,China,32.1287,112.7581,,,,,,
721,Shuizhai,China,33.4433,114.8994,,,,,,
722,Dnipro,Ukraine,48.45,34.9833,,,,,,
723,Kota,India,25.18,75.83,,,,,,
724,Quetta,Pakistan,30.192,67.007,,,,,,
725,Abu Dhabi,United Arab Emirates,24.4781,54.3686,,,,,,
726,Stockholm,Sweden,59.3294,18.0686,,,,,,
727,Ottawa,Canada,45.4247,-75.695,,,,,,
728,Asmara,Eritrea,15.3333,38.9167,,,,,,
729,Freetown,Sierra Leone,8.4833,-13.2331,,,,,,
731,Bangui,Central African Republic,4.3732,18.5628,,,,,,
732,Panama City,Panama,9.0,-79.5,,,,,,
733,Amsterdam,Netherlands,52.3667,4.8833,,,,,,
734,Lomé,Togo,6.1319,1.2228,,,,,,
735,Libreville,Gabon,0.3901,9.4544,,,,,,
736,Zagreb,Croatia,45.8,15.95,,,,,,
737,Dushanbe,Tajikistan,38.5731,68.7864,,,,,,
738,Lilongwe,Malawi,-13.9833,33.7833,,,,,,
739,Cotonou,Benin,6.4,2.52,,,,,,
740,Vientiane,Laos,17.9667,102.6,,,,,,
741,Colombo,Sri Lanka,6.9167,79.8333,,,,,,
742,Pretoria,South Africa,-25.7464,28.1881,,,,,,
743,Winnipeg,Canada,49.8844,-97.1464,,,,,,
744,Quebec City,Canada,46.8139,-71.2081,,,,,,
745,Oslo,Norway,59.9111,10.7528,,,,,,
747,Bujumbura,Burundi,-3.3825,29.3611,,,,,,
748,Helsinki,Finland,60.1756,24.9342,,,,,,
749,Skopje,Macedonia,41.9833,21.4333,,,,,,
750,Chisinau,Moldova,47.0228,28.8353,,,,,,
752,Copenhagen,Denmark,55.6761,12.5689,,,,,,
753,Kingston,Jamaica,17.9714,-76.7931,,,,,,
754,Rabat,Morocco,34.0253,-6.8361,,,,,,
755,Vilnius,Lithuania,54.6833,25.2833,,,,,,
756,San Salvador,El Salvador,13.6989,-89.1914,,,,,,
757,Djibouti,Djibouti,11.595,43.1481,,,,,,
758,Lisbon,Portugal,38.7452,-9.1604,,,,,,
759,Kitchener,Canada,43.4186,-80.4728,,,,,,
760,Tallinn,Estonia,59.4372,24.745,,,,,,
761,Cape Town,South Africa,-33.925,18.425,,,,,,
762,Bratislava,Slovakia,48.1447,17.1128,,,,,,
763,Tirana,Albania,41.33,19.82,,,,,,
764,Canberra,Australia,-35.2931,149.1269,,,,,,
766,Beirut,Lebanon,33.8869,35.5131,,,,,,
767,Dodoma,Tanzania,-6.1835,35.746,,,,,,
768,Halifax,Canada,44.6475,-63.5906,,,,,,
769,Bissau,Guinea-Bissau,11.8592,-15.5956,,,,,,
770,Juba,South Sudan,4.85,31.6,,,,,,
771,Port Moresby,Papua New Guinea,-9.4789,147.1494,,,,,,
772,Yamoussoukro,Côte D’Ivoire,6.8161,-5.2742,,,,,,
774,Maseru,Lesotho,-29.31,27.48,,,,,,
775,Nicosia,Cyprus,35.1725,33.365,,,,,,
776,Windhoek,Namibia,-22.57,17.0836,,,,,,
777,Porto-Novo,Benin,6.4833,2.6167,,,,,,
778,Sucre,Bolivia,-19.0431,-65.2592,,,,,,
779,San José,Costa Rica,9.9333,-84.0833,,,,,,
780,Ljubljana,Slovenia,46.05,14.5167,,,,,,
781,Sarajevo,Bosnia And Herzegovina,43.8667,18.4167,,,,,,
782,Nassau,"Bahamas, The",25.0667,-77.3333,,,,,,
783,Bloemfontein,South Africa,-29.1,26.2167,,,,,,
784,Fort-de-France,Martinique,14.6104,-61.08,,,,,,
785,Gaborone,Botswana,-24.6569,25.9086,,,,,,
786,Paramaribo,Suriname,5.8667,-55.1667,,,,,,
787,Dili,Timor-Leste,-8.5586,125.5736,,,,,,
788,Pristina,Kosovo,42.6667,21.1667,,,,,,
789,Georgetown,Guyana,6.7833,-58.1667,,,,,,
790,Malabo,Equatorial Guinea,3.7521,8.7737,,,,,,
791,Gibraltar,Gibraltar,36.1324,-5.3781,,,,,,
792,Saint-Denis,Reunion,-20.8789,55.4481,,,,,,
793,Male,Maldives,4.175,73.5083,,,,,,
794,Podgorica,Montenegro,42.4397,19.2661,,,,,,
795,Manama,Bahrain,26.225,50.5775,,,,,,
796,Port Louis,Mauritius,-20.1667,57.5,,,,,,
797,Willemstad,Curaçao,12.108,-68.935,,,,,,
798,New Delhi,India,28.7,77.2,,,,,,
799,Bern,Switzerland,46.948,7.4474,,,,,,
800,Papeete,French Polynesia,-17.5334,-149.5667,,,,,,
801,Reykjavík,Iceland,64.1475,-21.935,,,,,,
802,Praia,Cabo Verde,14.9177,-23.5092,,,,,,
803,Luxembourg,Luxembourg,49.6106,6.1328,,,,,,
804,Sri Jayewardenepura Kotte,Sri Lanka,6.9,79.9164,,,,,,
805,Bridgetown,Barbados,13.0975,-59.6167,,,,,,
806,Moroni,Comoros,-11.7036,43.2536,,,,,,
807,Thimphu,Bhutan,27.4833,89.6333,,,,,,
808,Mbabane,Swaziland,-26.3208,31.1617,,,,,,
809,Nouméa,New Caledonia,-22.2625,166.4443,,,,,,
810,Honiara,Solomon Islands,-9.4333,159.95,,,,,,
811,Suva,Fiji,-18.1333,178.4333,,,,,,
812,Castries,Saint Lucia,14.0167,-60.9833,,,,,,
813,Cayenne,French Guiana,4.933,-52.33,,,,,,
814,São Tomé,Sao Tome And Principe,0.3333,6.7333,,,,,,
815,Port-Vila,Vanuatu,-17.7333,168.3167,,,,,,
817,Bandar Seri Begawan,Brunei,4.9167,114.9167,,,,,,
818,Monaco,Monaco,43.7396,7.4069,,,,,,
819,Gitega,Burundi,-3.4264,29.9306,,,,,,
820,Port of Spain,Trinidad And Tobago,10.6667,-61.5167,,,,,,
821,Apia,Samoa,-13.8333,-171.8333,,,,,,
823,Oranjestad,Aruba,12.5186,-70.0358,,,,,,
824,Saint Helier,Jersey,49.1833,-2.1167,,,,,,
825,Vaduz,Liechtenstein,47.1415,9.5215,,,,,,
826,Banjul,"Gambia, The",13.4531,-16.5775,,,,,,
827,Mamoudzou,Mayotte,-12.7871,45.275,,,,,,
828,Majuro,Marshall Islands,7.0918,171.3802,,,,,,
829,Tarawa,Kiribati,1.3382,173.0176,,,,,,
830,George Town,Cayman Islands,19.2866,-81.3744,,,,,,
832,Kingstown,Saint Vincent And The Grenadines,13.1667,-61.2333,,,,,,
833,Saint John’s,Antigua And Barbuda,17.1211,-61.8447,,,,,,
834,Nuku‘alofa,Tonga,-21.1347,-175.2083,,,,,,
835,Andorra la Vella,Andorra,42.5,1.5,,,,,,
836,Nuuk,Greenland,64.175,-51.7333,,,,,,
837,Belmopan,Belize,17.25,-88.7675,,,,,,
838,Roseau,Dominica,15.3,-61.3833,,,,,,
839,Basseterre,Saint Kitts And Nevis,17.2983,-62.7342,,,,,,
840,Tórshavn,Faroe Islands,62.0,-6.7833,,,,,,
841,Pago Pago,American Samoa,-14.274,-170.7046,,,,,,
842,Valletta,Malta,35.8978,14.5125,,,,,,
843,Gaza,Gaza Strip,31.5069,34.456,,,,,,
844,Grand Turk,Turks And Caicos Islands,21.4664,-71.136,,,,,,
845,Palikir,"Micronesia, Federated States Of",6.9178,158.185,,,,,,
846,Funafuti,Tuvalu,-8.5167,179.2167,,,,,,
847,Lobamba,Swaziland,-26.4465,31.2064,,,,,,
848,Avarua,Cook Islands,-21.207,-159.771,,,,,,
849,Saint George’s,Grenada,12.0444,-61.7417,,,,,,
850,San Marino,San Marino,43.932,12.4484,,,,,,
851,Al Quds,West Bank,31.7764,35.2269,,,,,,
852,Capitol Hill,Northern Mariana Islands,15.2137,145.7546,,,,,,
853,Basse-Terre,Guadeloupe,16.0,-61.7167,,,,,,
855,Vatican City,Vatican City,41.9,12.4478,,,,,,
856,Alofi,Niue,-19.056,-169.921,,,,,,
857,Hagåtña,Guam,13.4745,144.7504,,,,,,
858,Jamestown,"Saint Helena, Ascension, And Tristan Da Cunha",-15.9251,-5.7179,,,,,,
859,Marigot,Saint Martin,18.0706,-63.0847,,,,,,
860,Philipsburg,Sint Maarten,18.0256,-63.0492,,,,,,
861,Road Town,"Virgin Islands, British",18.4167,-64.6167,,,,,,
862,Gustavia,Saint Barthelemy,17.8958,-62.8508,,,,,,
863,Saint-Pierre,Saint Pierre And Miquelon,46.7811,-56.1764,,,,,,
864,The Valley,Anguilla,18.2167,-63.05,,,,,,
865,Mata-Utu,Wallis And Futuna,-13.2825,-176.1736,,,,,,
867,Ngerulmud,Palau,7.5006,134.6242,,,,,,
868,Tifariti,Morocco,26.0928,-10.6089,,,,,,
870,Longyearbyen,Svalbard,78.2167,15.6333,,,,,,
871,Adamstown,Pitcairn Islands,-25.0667,-130.0833,,,,,,
872,Flying Fish Cove,Christmas Island,-10.4167,105.7167,,,,,,
873,Bareilly,India,28.364,79.415,,,,,,
874,Quảng Hà,Vietnam,16.06,108.25,,,,,,
875,Soacha,Colombia,4.5781,-74.2144,,,,,,
876,Kitaku,Japan,33.8704,130.82,,,,,,
877,Jodhpur,India,26.2918,73.0168,,,,,,
878,Xingcheng,China,24.1681,115.6669,,,,,,
879,Dongtai,China,32.8534,120.3037,,,,,,
880,Yingcheng,China,24.1878,113.4042,,,,,,
881,Al Manşūrah,Egypt,31.05,31.3833,,,,,,
882,Glasgow,United Kingdom,55.8609,-4.2514,,,,,,
883,Chiba,Japan,35.6,140.1,,,,,,
884,Luocheng,China,22.7645,111.5745,,,,,,
885,Danyang,China,31.9948,119.575,,,,,,
886,Natal,Brazil,-6.9838,-60.2699,,,,,,
887,Zhaodong,China,46.0635,125.9773,,,,,,
889,Xibeijie,China,39.737,98.5049,,,,,,
890,Kirkuk,Iraq,35.4667,44.4,,,,,,
891,Naples,Italy,40.8333,14.25,,,,,,
892,Wuchuan,China,21.4283,110.7749,,,,,,
893,Huilong,China,31.8131,121.6574,,,,,,
894,Oklahoma City,United States,35.4676,-97.5136,,,,,,
895,Toulouse,France,43.6045,1.444,,,,,,
896,Málaga,Spain,36.7194,-4.42,,,,,,
897,Denizli,Turkey,37.7731,29.0878,,,,,,
898,Dispur,India,26.15,91.77,,,,,,
899,Coimbatore,India,11.0,76.9667,,,,,,
900,Guwāhāti,India,26.1667,91.7667,,,,,,
901,Sŏngnam,"Korea, South",37.4386,127.1378,,,,,,
902,Taishan,China,22.2486,112.785,,,,,,
903,Solāpur,India,17.6833,75.9167,,,,,,
904,Tangier,Morocco,35.7767,-5.8039,,,,,,
905,Anqiu,China,36.3619,119.1072,,,,,,
906,Feicheng,China,36.186,116.772,,,,,,
908,Kisangani,Congo (Kinshasa),0.5153,25.1911,,,,,,
909,Khartoum North,Sudan,15.6333,32.6333,,,,,,
910,Aguascalientes,Mexico,21.876,-102.296,,,,,,
911,Marrakech,Morocco,31.6295,-7.9811,,,,,,
912,Donetsk,Ukraine,48.0089,37.8042,,,,,,
913,Taihecun,China,45.768,131.0063,,,,,,
914,Trujillo,Peru,-8.1119,-79.0289,,,,,,
915,Cebu City,Philippines,10.3,123.9,,,,,,
916,Taihe,China,30.8706,105.3784,,,,,,
917,Bridgeport,United States,41.1918,-73.1953,,,,,,
918,Antwerp,Belgium,51.2206,4.4003,,,,,,
919,Trichinopoly,India,10.8269,78.6928,,,,,,
920,Xin’an,China,34.3662,118.3369,,,,,,
921,Padang,Indonesia,-0.9556,100.3606,,,,,,
922,Qingzhou,China,36.6967,118.4797,,,,,,
923,Buffalo,United States,42.9016,-78.8487,,,,,,
924,Lichuan,China,30.2965,108.9378,,,,,,
925,Daye,China,30.1003,114.9699,,,,,,
926,Fort Worth,United States,32.7811,-97.3473,,,,,,
927,Hengzhou,China,22.6896,109.2674,,,,,,
928,Campo Grande,Brazil,-20.4686,-54.6222,,,,,,
929,Zhuanghe,China,39.6896,122.9664,,,,,,
930,Hartford,United States,41.7661,-72.6834,,,,,,
931,Ad Dammām,Saudi Arabia,26.4333,50.1,,,,,,
932,Bucheon,"Korea, South",37.4989,126.7831,,,,,,
933,Lhasa,China,29.65,91.1,,,,,,
934,Homs,Syria,34.7333,36.7167,,,,,,
935,Jiaozhou,China,36.2481,119.9625,,,,,,
936,Mérida,Mexico,20.97,-89.62,,,,,,
937,Yangchun,China,22.1717,111.7846,,,,,,
938,Concepción,Chile,-36.82,-73.0445,,,,,,
939,Dengtalu,China,36.08,114.35,,,,,,
940,Hubli,India,15.36,75.125,,,,,,
941,Abeokuta,Nigeria,7.15,3.35,,,,,,
942,Tucson,United States,32.1545,-110.8782,,,,,,
943,Krasnodar,Russia,45.0333,38.9833,,,,,,
945,Chihuahua,Mexico,28.6353,-106.0889,,,,,,
946,Klang,Malaysia,3.0333,101.45,,,,,,
947,Turin,Italy,45.0667,7.7,,,,,,
949,Laiyang,China,36.9758,120.7136,,,,,,
950,Jalandhar,India,31.3256,75.5792,,,,,,
951,Sale,Morocco,34.05,-6.8167,,,,,,
952,Marseille,France,43.2964,5.37,,,,,,
953,Kaifeng Chengguanzhen,China,34.85,114.35,,,,,,
954,Eskişehir,Turkey,39.7767,30.5206,,,,,,
955,Gaomi,China,36.3833,119.75,,,,,,
956,Teresina,Brazil,-5.0949,-42.8042,,,,,,
957,Ipoh,Malaysia,4.6,101.07,,,,,,
958,Hai’an,China,32.532,120.4604,,,,,,
959,Liverpool,United Kingdom,53.4,-2.9833,,,,,,
960,Zamboanga City,Philippines,6.9167,122.0833,,,,,,
961,Oran,Algeria,35.6969,-0.6331,,,,,,
962,Southampton,United Kingdom,50.9,-1.4,,,,,,
963,Weichanglu,China,37.1792,119.9333,,,,,,
964,Pekanbaru,Indonesia,0.5333,101.45,,,,,,
965,Portsmouth,United Kingdom,50.8058,-1.0872,,,,,,
966,Leping,China,28.9632,117.1203,,,,,,
967,Kermānshāh,Iran,34.3167,47.0686,,,,,,
968,Hailun,China,47.4585,126.9632,,,,,,
969,Macheng,China,31.1817,115.0189,,,,,,
970,Ilorin,Nigeria,8.5,4.55,,,,,,
971,Omaha,United States,41.2627,-96.0522,,,,,,
972,Yuci,China,37.6804,112.73,,,,,,
973,Saratov,Russia,51.5333,46.0,,,,,,
974,São Bernardo do Campo,Brazil,-23.6939,-46.565,,,,,,
975,Erbil,Iraq,36.1911,44.0094,,,,,,
976,Iguaçu,Brazil,-22.74,-43.47,,,,,,
977,El Paso,United States,31.8479,-106.4309,,,,,,
978,Denpasar,Indonesia,-8.6667,115.2167,,,,,,
979,Dehui,China,44.5323,125.6965,,,,,,
980,Naucalpan de Juárez,Mexico,19.4753,-99.2378,,,,,,
981,Bhubaneshwar,India,20.2644,85.8281,,,,,,
982,Tongchuan,China,34.9057,108.9422,,,,,,
983,Cheongju,"Korea, South",36.6372,127.4897,,,,,,
984,Warri,Nigeria,5.5167,5.75,,,,,,
985,Pointe-Noire,Congo (Brazzaville),-4.7889,11.8653,,,,,,
986,Rongjiawan,China,29.1409,113.1087,,,,,,
987,Butterworth,Malaysia,5.3942,100.3664,,,,,,
988,Bhayandar,India,19.3,72.85,,,,,,
989,San Luis Potosí,Mexico,22.1511,-100.9761,,,,,,
990,Renqiu,China,38.7094,116.1008,,,,,,
991,João Pessoa,Brazil,-7.12,-34.88,,,,,,
992,Toluca,Mexico,19.2925,-99.6569,,,,,,
993,Honolulu,United States,21.3294,-157.846,,,,,,
994,Querétaro,Mexico,20.5875,-100.3928,,,,,,
995,Xindi,China,29.8182,113.4653,,,,,,
996,Wu’an,China,36.6941,114.1847,,,,,,
997,Hermosillo,Mexico,29.0989,-110.9542,,,,,,
998,Wutong,China,30.6326,120.5474,,,,,,
999,Taguig City,Philippines,14.5167,121.05,,,,,,
1000,Saltillo,Mexico,25.4333,-101.0,,,,,,
1001,Gaoyou,China,32.7847,119.4432,,,,,,
1002,Hejian,China,38.4451,116.0897,,,,,,
1004,Puxi,China,35.2125,114.735,,,,,,
1005,Zijinglu,China,34.7513,112.9854,,,,,,
1006,Trabzon,Turkey,41.005,39.7225,,,,,,
1007,Xiashi,China,30.5333,120.6833,,,,,,
1009,Dongyang,China,29.2785,120.2282,,,,,,
1010,McAllen,United States,26.2273,-98.2471,,,,,,
1011,Abaeté,Brazil,-19.1583,-45.4522,,,,,,
1012,Palermo,Colombia,2.8883,-75.4339,,,,,,
1013,Johor Bahru,Malaysia,1.4556,103.7611,,,,,,
1014,Qingping,China,34.538,113.3796,,,,,,
1015,Morelia,Mexico,19.7683,-101.1894,,,,,,
1016,Niigata,Japan,37.9161,139.0364,,,,,,
1017,Pasig City,Philippines,14.575,121.0833,,,,,,
1018,Morādābād,India,28.8418,78.7568,,,,,,
1019,Hamamatsu,Japan,34.7167,137.7333,,,,,,
1020,Culiacán,Mexico,24.8069,-107.3939,,,,,,
1021,Xiangxiang,China,27.7389,112.5223,,,,,,
1022,Malang,Indonesia,-7.98,112.62,,,,,,
1023,Xingyi,China,25.091,104.9011,,,,,,
1024,Chaohucun,China,31.6783,117.7353,,,,,,
1026,Antipolo,Philippines,14.5842,121.1763,,,,,,
1027,Lubango,Angola,-14.9167,13.5,,,,,,
1028,Nottingham,United Kingdom,52.95,-1.15,,,,,,
1029,Cencheng,China,22.9297,111.0186,,,,,,
1030,Kraków,Poland,50.0614,19.9372,,,,,,
1031,Erzurum,Turkey,39.9097,41.2756,,,,,,
1032,Hempstead,United States,40.6629,-73.6089,,,,,,
1033,Al ‘Ayn,United Arab Emirates,24.2075,55.7447,,,,,,
1034,Songzi,China,30.1772,111.7732,,,,,,
1035,Laixi,China,36.8667,120.5333,,,,,,
1036,Bahawalpur,Pakistan,29.3956,71.6722,,,,,,
1037,Zhongba,China,31.7761,104.7406,,,,,,
1038,Qingnian,China,36.8494,115.7061,,,,,,
1039,Albuquerque,United States,35.1053,-106.6464,,,,,,
1040,Kaduna,Nigeria,10.5231,7.4403,,,,,,
1041,Tlalnepantla,Mexico,19.5367,-99.1947,,,,,,
1042,Xinhualu,China,34.3962,113.7249,,,,,,
1043,Guangshui,China,31.6189,113.8229,,,,,,
1044,Frankfurt,Germany,50.1136,8.6797,,,,,,
1045,Samarinda,Indonesia,-0.5022,117.1536,,,,,,
1046,Changhua,Taiwan,24.0667,120.5333,,,,,,
1047,Pietermaritzburg,South Africa,-29.5833,30.4167,,,,,,
1048,Hŭngnam,"Korea, North",39.8231,127.6232,,,,,,
1049,Kolhāpur,India,16.7,74.2333,,,,,,
1050,Ciudad Guayana,Venezuela,8.3596,-62.6517,,,,,,
1051,Cúcuta,Colombia,7.9075,-72.5047,,,,,,
1052,Licheng,China,31.4174,119.4786,,,,,,
1053,Thiruvananthapuram,India,8.5,76.8997,,,,,,
1054,Tyumen,Russia,57.15,65.5333,,,,,,
1055,Cancún,Mexico,21.1606,-86.8475,,,,,,
1056,Zaporizhzhia,Ukraine,47.8378,35.1383,,,,,,
1057,Tlajomulco de Zúñiga,Mexico,20.4736,-103.4431,,,,,,
1058,Chengguan,China,35.4599,113.7975,,,,,,
1059,Kumamoto,Japan,32.8031,130.7078,,,,,,
1060,Nehe,China,48.48,124.8738,,,,,,
1061,Sokoto,Nigeria,13.0622,5.2339,,,,,,
1063,Zunhua,China,40.1881,117.9593,,,,,,
1064,Orūmīyeh,Iran,37.5486,45.0675,,,,,,
1066,Wugang,China,26.7345,110.6293,,,,,,
1067,Shuangqiao,China,35.0833,112.5833,,,,,,
1068,Rennes,France,48.1147,-1.6794,,,,,,
1069,Sizhan,China,39.0099,106.3694,,,,,,
1070,Comodoro Rivadavia,Argentina,-45.8667,-67.5,,,,,,
1071,Langzhong,China,31.5833,105.972,,,,,,
1072,Bristol,United Kingdom,51.45,-2.5833,,,,,,
1073,Qian’an,China,40.0059,118.6973,,,,,,
1074,Lviv,Ukraine,49.8419,24.0315,,,,,,
1075,Zouping,China,36.8625,117.7424,,,,,,
1076,Bremen,Germany,53.1153,8.7975,,,,,,
1077,Reynosa,Mexico,26.0922,-98.2778,,,,,,
1078,An Najaf,Iraq,32.029,44.3396,,,,,,
1079,Sagamihara,Japan,35.5667,139.3667,,,,,,
1080,Guli,China,28.9008,120.0284,,,,,,
1081,Sarasota,United States,27.3386,-82.5431,,,,,,
1082,Mississauga,Canada,43.6,-79.65,,,,,,
1083,Lingbao Chengguanzhen,China,34.5221,110.8786,,,,,,
1084,Okayama,Japan,34.65,133.9167,,,,,,
1085,Anlu,China,31.2575,113.6783,,,,,,
1086,Wusong,China,30.9333,117.7667,,,,,,
1087,Dayton,United States,39.7797,-84.1998,,,,,,
1089,Enugu,Nigeria,6.4403,7.4942,,,,,,
1091,Jaboatão,Brazil,-8.1803,-35.0014,,,,,,
1092,Santo André,Brazil,-23.6572,-46.5333,,,,,,
1093,Xichang,China,27.8983,102.2706,,,,,,
1095,Chengxiang,China,31.4515,121.1043,,,,,,
1096,Tolyatti,Russia,53.5167,49.4167,,,,,,
1097,Sahāranpur,India,29.964,77.546,,,,,,
1098,Warangal,India,17.9756,79.6011,,,,,,
1099,Edogawa,Japan,35.6924,139.8757,,,,,,
1100,Osasco,Brazil,-23.5328,-46.7919,,,,,,
1101,Dashiqiao,China,40.6328,122.5021,,,,,,
1102,Latakia,Syria,35.5236,35.7917,,,,,,
1103,Rochester,United States,43.168,-77.6162,,,,,,
1104,Fresno,United States,36.7831,-119.7941,,,,,,
1105,Banjarmasin,Indonesia,-3.3333,114.5833,,,,,,
1107,Uberlândia,Brazil,-18.9189,-48.2769,,,,,,
1108,Shishi,China,24.7355,118.6434,,,,,,
1109,Grenoble,France,45.1715,5.7224,,,,,,
1111,Adachi,Japan,35.7833,139.8,,,,,,
1112,Qianxi,China,27.0284,106.0327,,,,,,
1113,Aracaju,Brazil,-10.9111,-37.0717,,,,,,
1114,Bauchi,Nigeria,10.3158,9.8442,,,,,,
1116,Łódź,Poland,51.7769,19.4547,,,,,,
1117,Miluo Chengguanzhen,China,28.8049,113.0745,,,,,,
1118,Gaizhou,China,40.4019,122.3499,,,,,,
1119,Mālegaon,India,20.55,74.55,,,,,,
1120,Karbalā’,Iraq,32.6167,44.0333,,,,,,
1121,Leling,China,37.7333,117.2167,,,,,,
1122,São José dos Campos,Brazil,-23.1789,-45.8869,,,,,,
1123,Jianshe,China,34.2189,113.7693,,,,,,
1124,Acapulco de Juárez,Mexico,16.8636,-99.8825,,,,,,
1125,Sheffield,United Kingdom,53.3833,-1.4667,,,,,,
1126,Shizuoka,Japan,34.9756,138.3825,,,,,,
1127,Jingcheng,China,32.0058,120.2547,,,,,,
1128,City of Parañaque,Philippines,14.4667,121.0167,,,,,,
1129,Kochi,India,9.9667,76.2833,,,,,,
1130,Allentown,United States,40.5961,-75.4756,,,,,,
1131,Tasikmalaya,Indonesia,-7.3333,108.2,,,,,,
1132,Macau,Macau,22.203,113.545,,,,,,
1133,Torreón,Mexico,25.5394,-103.4486,,,,,,
1134,Xinmin,China,41.9952,122.8224,,,,,,
1135,Shanhu,China,29.5908,120.8176,,,,,,
1136,Zhongshu,China,27.8116,106.4133,,,,,,
1137,Xigazê,China,29.2649,88.8799,,,,,,
1138,Gold Coast,Australia,-28.0167,153.4,,,,,,
1139,Cagayan de Oro,Philippines,8.4833,124.65,,,,,,
1140,Gorakhpur,India,26.7611,83.3667,,,,,,
1141,Pinghu,China,30.7005,121.0104,,,,,,
1144,Tulsa,United States,36.1284,-95.9042,,,,,,
1145,Yatou,China,37.1653,122.4867,,,,,,
1146,Songyang,China,34.4161,113.0424,,,,,,
1147,Cape Coral,United States,26.6446,-81.9956,,,,,,
1148,Ch’ŏngjin,"Korea, North",41.8,129.7831,,,,,,
1149,Puyang Chengguanzhen,China,35.7004,114.98,,,,,,
1150,Qionghu,China,28.8417,112.3595,,,,,,
1151,Ribeirão Prêto,Brazil,-21.1783,-47.8067,,,,,,
1152,Dasmariñas,Philippines,14.3294,120.9367,,,,,,
1153,Wenchang,China,31.054,116.9507,,,,,,
1154,Shulan,China,44.4167,126.95,,,,,,
1155,Catia La Mar,Venezuela,10.6,-67.0333,,,,,,
1156,Sargodha,Pakistan,32.0836,72.6711,,,,,,
1157,Bouaké,Côte D’Ivoire,7.6833,-5.0331,,,,,,
1158,Sialkot City,Pakistan,32.5,74.5333,,,,,,
1159,As Sulaymānīyah,Iraq,35.55,45.4333,,,,,,
1160,Hwasu-dong,"Korea, South",37.2,126.7667,,,,,,
1161,Jeonju,"Korea, South",35.8219,127.1489,,,,,,
1162,Durango,Mexico,24.0167,-104.6667,,,,,,
1163,Shimoga,India,13.9304,75.56,,,,,,
1164,Ansan,"Korea, South",37.3236,126.8219,,,,,,
1165,Bulawayo,Zimbabwe,-20.1667,28.5667,,,,,,
1167,Sanhe,China,39.9808,117.0701,,,,,,
1168,Guntūr,India,16.3,80.45,,,,,,
1170,Concord,United States,37.9722,-122.0016,,,,,,
1171,Contagem,Brazil,-19.9319,-44.0539,,,,,,
1172,Tiruppūr,India,11.1075,77.3398,,,,,,
1173,Ch’ŏnan,"Korea, South",36.8064,127.1522,,,,,,
1174,Zaragoza,Spain,41.6483,-0.883,,,,,,
1175,Düsseldorf,Germany,51.2311,6.7724,,,,,,
1176,Izhevsk,Russia,56.85,53.2167,,,,,,
1177,Guixi,China,28.2861,117.2083,,,,,,
1178,Sorocaba,Brazil,-23.5019,-47.4578,,,,,,
1179,Villahermosa,Mexico,17.9892,-92.9281,,,,,,
1180,Petaling Jaya,Malaysia,3.1073,101.6067,,,,,,
1181,Tengyue,China,25.0208,98.4972,,,,,,
1182,Wuxue,China,29.8518,115.5539,,,,,,
1183,Utrecht,Netherlands,52.0908,5.1222,,,,,,
1184,Kikwit,Congo (Kinshasa),-5.0333,18.8167,,,,,,
1185,Colorado Springs,United States,38.8674,-104.7606,,,,,,
1186,Valenzuela,Philippines,14.7,120.9833,,,,,,
1187,Qufu,China,35.6,116.9833,,,,,,
1188,Gaobeidian,China,39.3257,115.8678,,,,,,
1189,Ruiming,China,25.8833,116.0333,,,,,,
1190,Wrocław,Poland,51.11,17.0325,,,,,,
1191,Rasht,Iran,37.2833,49.6,,,,,,
1192,Nantes,France,47.2181,-1.5528,,,,,,
1193,Stuttgart,Germany,48.7761,9.1775,,,,,,
1194,Al Hufūf,Saudi Arabia,25.3608,49.5997,,,,,,
1195,Xinshi,China,31.0236,113.1079,,,,,,
1196,Cochabamba,Bolivia,-17.3935,-66.157,,,,,,
1197,Barnaul,Russia,53.3567,83.7872,,,,,,
1199,Jin’e,China,29.3395,105.2868,,,,,,
1200,Rotterdam,Netherlands,51.9225,4.4792,,,,,,
1201,Benghazi,Libya,32.1167,20.0667,,,,,,
1202,Kryvyi Rih,Ukraine,47.9086,33.3433,,,,,,
1203,Yanggok,"Korea, South",37.6367,127.2142,,,,,,
1204,Changping,China,40.2248,116.1944,,,,,,
1205,Raurkela,India,22.2492,84.8828,,,,,,
1206,Ḩalwān,Egypt,29.8419,31.3342,,,,,,
1207,Charleston,United States,32.8153,-79.9628,,,,,,
1208,Chimalhuacán,Mexico,19.4167,-98.9,,,,,,
1209,Xinxing,China,39.8734,124.1453,,,,,,
1210,Suohe,China,34.7879,113.392,,,,,,
1211,Mangalore,India,12.8703,74.8806,,,,,,
1212,Zhuangyuan,China,37.3,120.8333,,,,,,
1213,Ulyanovsk,Russia,54.3167,48.3667,,,,,,
1214,Irkutsk,Russia,52.2833,104.3,,,,,,
1215,Nānded,India,19.15,77.3333,,,,,,
1216,Bacoor,Philippines,14.4624,120.9645,,,,,,
1217,Pontianak,Indonesia,-0.0206,109.3414,,,,,,
1218,Villa Nueva,Guatemala,14.5314,-90.5964,,,,,,
1220,Springfield,United States,42.1155,-72.5395,,,,,,
1221,Turpan,China,42.95,89.1822,,,,,,
1222,Xingtai,China,37.0659,114.4753,,,,,,
1223,Meihekou,China,42.5279,125.678,,,,,,
1224,Cuiabá,Brazil,-15.5958,-56.0969,,,,,,
1225,Jurong,China,31.9579,119.1595,,,,,,
1226,Feira de Santana,Brazil,-12.2669,-38.9669,,,,,,
1227,Khabarovsk,Russia,48.4833,135.0667,,,,,,
1228,Zhugang,China,28.1277,121.2288,,,,,,
1229,Xinji,China,37.9423,115.2118,,,,,,
1230,Hamhŭng,"Korea, North",39.9656,127.4886,,,,,,
1231,Serang,Indonesia,-6.12,106.1503,,,,,,
1232,Sanya,China,18.2536,109.5019,,,,,,
1233,Buraydah,Saudi Arabia,26.3333,43.9667,,,,,,
1234,Ta‘izz,Yemen,13.5789,44.0219,,,,,,
1235,Montpellier,France,43.6119,3.8772,,,,,,
1236,San Miguel de Tucumán,Argentina,-26.8167,-65.2167,,,,,,
1237,Yaroslavl,Russia,57.6167,39.85,,,,,,
1238,Zhangshu,China,28.0667,115.5375,,,,,,
1239,Grand Rapids,United States,42.962,-85.6562,,,,,,
1240,Vladivostok,Russia,43.1167,131.9,,,,,,
1241,Kuantan,Malaysia,3.8167,103.3333,,,,,,
1242,Gothenburg,Sweden,57.6717,11.981,,,,,,
1243,Cuttack,India,20.45,85.8667,,,,,,
1244,Jambi,Indonesia,-1.59,103.61,,,,,,
1245,Zhuozhou,China,39.4887,115.9918,,,,,,
1246,Tianchang,China,32.6853,119.0041,,,,,,
1247,Las Piñas City,Philippines,14.45,120.9833,,,,,,
1248,Cimahi,Indonesia,-6.8833,107.5333,,,,,,
1249,Tuxtla,Mexico,16.7528,-93.1167,,,,,,
1250,Balikpapan,Indonesia,-1.1489,116.9031,,,,,,
1251,Qamdo,China,31.1375,97.1777,,,,,,
1252,Joinvile,Brazil,-26.3039,-48.8458,,,,,,
1253,Durban,South Africa,-29.8583,31.025,,,,,,
1254,General Santos,Philippines,6.1167,125.1667,,,,,,
1255,Chānda,India,19.95,79.3,,,,,,
1256,Kagoshima,Japan,31.58,130.5281,,,,,,
1257,Leipzig,Germany,51.3333,12.3833,,,,,,
1258,Al Ḩillah,Saudi Arabia,23.4895,46.7564,,,,,,
1259,Makhachkala,Russia,42.9833,47.4833,,,,,,
1260,Sihui,China,23.3448,112.6956,,,,,,
1261,Mar del Plata,Argentina,-38.0,-57.55,,,,,,
1262,Brampton,Canada,43.6833,-79.7667,,,,,,
1264,Pereira,Colombia,4.8143,-75.6946,,,,,,
1265,Mission Viejo,United States,33.6095,-117.655,,,,,,
1266,Dortmund,Germany,51.5139,7.4653,,,,,,
1267,Chuxiong,China,25.0461,101.5436,,,,,,
1268,Makati City,Philippines,14.55,121.0333,,,,,,
1269,Albany,United States,42.6664,-73.7987,,,,,,
1270,Shah Alam,Malaysia,3.0833,101.5333,,,,,,
1271,Knoxville,United States,35.9692,-83.9496,,,,,,
1272,Essen,Germany,51.4508,7.0131,,,,,,
1273,Shangzhi,China,45.2116,127.962,,,,,,
1274,Botou,China,38.074,116.57,,,,,,
1275,Bucaramanga,Colombia,7.1186,-73.1161,,,,,,
1276,Anyang,"Korea, South",37.3925,126.9269,,,,,,
1277,Genoa,Italy,44.4072,8.934,,,,,,
1278,Kuiju,China,36.8528,119.3904,,,,,,
1279,Tlaquepaque,Mexico,20.6167,-103.3167,,,,,,
1280,Puente Alto,Chile,-33.6167,-70.5833,,,,,,
1281,Dehra Dūn,India,30.318,78.029,,,,,,
1282,Aţ Ţā’if,Saudi Arabia,21.2667,40.4167,,,,,,
1283,San Jose del Monte,Philippines,14.8139,121.0453,,,,,,
1284,Bakersfield,United States,35.3529,-119.0359,,,,,,
1285,Wancheng,China,18.8,110.4,,,,,,
1286,Hachiōji,Japan,35.6667,139.3167,,,,,,
1287,Ogden,United States,41.2278,-111.9682,,,,,,
1288,Xiulin,China,29.7211,112.4037,,,,,,
1289,Fu’an,China,27.1,119.6333,,,,,,
1290,Tomsk,Russia,56.4886,84.9522,,,,,,
1291,Kermān,Iran,30.2833,57.0667,,,,,,
1292,Kingston upon Hull,United Kingdom,53.7444,-0.3325,,,,,,
1293,Al Maḩallah al Kubrá,Egypt,30.9667,31.1667,,,,,,
1294,Kumul,China,42.8322,93.5155,,,,,,
1295,Luofeng,China,37.359,120.396,,,,,,
1296,Lingyuan,China,41.2407,119.3957,,,,,,
1297,Baton Rouge,United States,30.4418,-91.131,,,,,,
1298,Wencheng,China,19.6167,110.75,,,,,,
1299,Ciudad Bolívar,Venezuela,8.1167,-63.55,,,,,,
1300,Durgāpur,India,23.55,87.32,,,,,,
1301,Orenburg,Russia,51.7667,55.1,,,,,,
1302,Shenzhou,China,38.0005,115.5541,,,,,,
1303,Āsansol,India,23.6833,86.9667,,,,,,
1304,Bacolod,Philippines,10.6765,122.9509,,,,,,
1305,Akron,United States,41.0798,-81.5219,,,,,,
1306,New Haven,United States,41.3112,-72.9246,,,,,,
1307,Zhenzhou,China,32.2739,119.1619,,,,,,
1308,Surakarta,Indonesia,-7.5667,110.8167,,,,,,
1309,Jieshou,China,33.2605,115.3618,,,,,,
1310,Lanxi,China,29.2167,119.4722,,,,,,
1311,Zāhedān,Iran,29.4833,60.8667,,,,,,
1312,Dangyang,China,30.8258,111.791,,,,,,
1313,Columbia,United States,34.0376,-80.9037,,,,,,
1314,Kemerovo,Russia,55.3333,86.0667,,,,,,
1315,Dresden,Germany,51.05,13.74,,,,,,
1316,Veracruz,Mexico,19.1903,-96.1533,,,,,,
1317,Bhāvnagar,India,21.765,72.1369,,,,,,
1318,Luanzhou,China,39.7396,118.6978,,,,,,
1319,Novokuznetsk,Russia,53.75,87.1167,,,,,,
1320,Nellore,India,14.4333,79.9667,,,,,,
1321,Chiclayo,Peru,-6.763,-79.8366,,,,,,
1323,Al Ḩudaydah,Yemen,14.8022,42.9511,,,,,,
1324,Eslāmshahr,Iran,35.5333,51.2,,,,,,
1325,Cabinda,Angola,-5.5667,12.2,,,,,,
1326,Amrāvati,India,20.9333,77.75,,,,,,
1327,Korla,China,41.7646,86.1527,,,,,,
1328,Huanghua,China,38.371,117.3329,,,,,,
1329,Londrina,Brazil,-23.31,-51.1628,,,,,,
1330,Tabūk,Saudi Arabia,28.3838,36.555,,,,,,
1333,Valledupar,Colombia,10.4603,-73.2597,,,,,,
1334,Fengcheng,China,40.4543,124.0646,,,,,,
1335,Ajmer,India,26.468,74.639,,,,,,
1336,Tinnevelly,India,8.7289,77.7081,,,,,,
1337,Fuding,China,27.2,120.2,,,,,,
1338,Maturín,Venezuela,9.7457,-63.1832,,,,,,
1339,An Nāşirīyah,Iraq,31.0439,46.2575,,,,,,
1341,Ibagué,Colombia,4.4378,-75.2006,,,,,,
1342,Hannover,Germany,52.3744,9.7386,,,,,,
1343,Ryazan,Russia,54.6167,39.7167,,,,,,
1344,Panshi,China,42.9392,126.0561,,,,,,
1345,Kassala,Sudan,15.45,36.4,,,,,,
1346,Ananindeua,Brazil,-1.3658,-48.3719,,,,,,
1347,Chang’an,China,29.4761,113.448,,,,,,
1349,Poznań,Poland,52.4,16.9167,,,,,,
1350,Aksu,China,41.1664,80.25,,,,,,
1351,Salta,Argentina,-24.7883,-65.4106,,,,,,
1352,Astrakhan,Russia,46.3333,48.0167,,,,,,
1353,Mingguang,China,32.7816,117.9899,,,,,,
1354,Naberezhnyye Chelny,Russia,55.7,52.3333,,,,,,
1355,Bīkaner,India,28.0181,73.3169,,,,,,
1356,Agartala,India,23.8333,91.2667,,,,,,
1357,Xalapa,Mexico,19.54,-96.9275,,,,,,
1358,Ndola,Zambia,-12.9683,28.6337,,,,,,
1359,Hamadān,Iran,34.8065,48.5162,,,,,,
1360,Villavicencio,Colombia,4.1425,-73.6294,,,,,,
1361,Ailan Mubage,China,43.9167,81.3167,,,,,,
1362,Ensenada,Mexico,31.8578,-116.6058,,,,,,
1363,Lyon,France,45.76,4.84,,,,,,
1364,Bắc Ninh,Vietnam,21.1861,106.0763,,,,,,
1365,Ciudad Apodaca,Mexico,25.7833,-100.1833,,,,,,
1366,Santa Teresa del Tuy,Venezuela,10.2333,-66.65,,,,,,
1367,Maipú,Chile,-33.5167,-70.7667,,,,,,
1368,Penza,Russia,53.2,45.0,,,,,,
1369,Heroica Matamoros,Mexico,25.8797,-97.5042,,,,,,
1370,Port Said,Egypt,31.25,32.2833,,,,,,
1372,Meknès,Morocco,33.8833,-5.55,,,,,,
1373,Nuremberg,Germany,49.4539,11.0775,,,,,,
1374,Pohang,"Korea, South",36.0322,129.365,,,,,,
1376,Jinghong,China,22.0057,100.7948,,,,,,
1377,Utsunomiya,Japan,36.55,139.8833,,,,,,
1378,Liaoyuan,China,42.8976,125.1381,,,,,,
1379,Mesa,United States,33.4017,-111.718,,,,,,
1380,Surrey,Canada,49.19,-122.8489,,,,,,
1381,Caxias do Sul,Brazil,-29.1678,-51.1789,,,,,,
1382,Heshan,China,22.7697,112.9578,,,,,,
1383,Cuautitlán Izcalli,Mexico,19.65,-99.25,,,,,,
1384,Ujjain,India,23.1828,75.7772,,,,,,
1385,Jiaji,China,19.2431,110.4642,,,,,,
1386,Santa Marta,Colombia,11.2361,-74.2017,,,,,,
1387,Beining,China,41.5933,121.7932,,,,,,
1388,Hải Dương,Vietnam,20.9399,106.3309,,,,,,
1389,Carrefour,Haiti,18.5333,-72.4,,,,,,
1390,Homyel’,Belarus,52.4417,30.9833,,,,,,
1391,Leicester,United Kingdom,52.6333,-1.1333,,,,,,
1392,Yanji,China,42.9044,129.5067,,,,,,
1394,Lipetsk,Russia,52.6167,39.6,,,,,,
1395,Choloma,Honduras,15.6333,-88.0,,,,,,
1396,Ulhāsnagar,India,19.2167,73.15,,,,,,
1397,Encheng,China,22.1879,112.3131,,,,,,
1398,Muntinlupa City,Philippines,14.3833,121.05,,,,,,
1399,Linghai,China,41.1676,121.3558,,,,,,
1400,Aden,Yemen,12.8,45.0333,,,,,,
1401,Matsuyama,Japan,33.8333,132.7667,,,,,,
1402,Jhānsi,India,25.4486,78.5696,,,,,,
1403,Kitwe,Zambia,-12.8208,28.2119,,,,,,
1404,Kashgar,China,39.45,75.9833,,,,,,
1406,Palm Bay,United States,27.955,-80.6627,,,,,,
1407,Pingtung,Taiwan,22.6761,120.4942,,,,,,
1408,Montería,Colombia,8.76,-75.8856,,,,,,
1409,Samarkand,Uzbekistan,39.6542,66.9597,,,,,,
1410,Davangere,India,14.4667,75.9167,,,,,,
1411,Jammu,India,32.7333,74.85,,,,,,
1412,Mazatlán,Mexico,23.22,-106.42,,,,,,
1413,Murcia,Spain,37.9861,-1.1303,,,,,,
1414,Ile-Ife,Nigeria,7.4667,4.5667,,,,,,
1415,Kirov,Russia,58.6,49.65,,,,,,
1416,Qaraghandy,Kazakhstan,49.8,73.1167,,,,,,
1417,Belas,Angola,-8.9983,13.265,,,,,,
1418,Mazatán,Mexico,29.0167,-110.1333,,,,,,
1419,Duisburg,Germany,51.4322,6.7611,,,,,,
1420,Mykolaiv,Ukraine,46.9667,32.0,,,,,,
1421,Provo,United States,40.2457,-111.6457,,,,,,
1422,Meicheng,China,30.6412,116.5689,,,,,,
1423,Niterói,Brazil,-22.8833,-43.1036,,,,,,
1424,Matsudo,Japan,35.7878,139.9031,,,,,,
1425,Sukkur,Pakistan,27.6995,68.8673,,,,,,
1426,Rouen,France,49.4428,1.0886,,,,,,
1427,Higashi-ōsaka,Japan,34.6794,135.6008,,,,,,
1428,Worcester,United States,42.2705,-71.8079,,,,,,
1429,Hongjiang,China,27.1167,109.95,,,,,,
1430,Chimbote,Peru,-9.0745,-78.5936,,,,,,
1431,Ixtapaluca,Mexico,19.3186,-98.8822,,,,,,
1432,Dengtacun,China,41.42,123.33,,,,,,
1433,Zhijiang,China,30.4271,111.7506,,,,,,
1434,Chengjiao,China,35.4043,114.0593,,,,,,
1435,Beipiao,China,41.802,120.7621,,,,,,
1436,Murrieta,United States,33.572,-117.1909,,,,,,
1437,Kota Bharu,Malaysia,6.1333,102.25,,,,,,
1438,Ciudad López Mateos,Mexico,19.55,-99.2833,,,,,,
1440,Tultitlán de Mariano Escobedo,Mexico,19.645,-99.1694,,,,,,
1441,Duyun,China,26.2672,107.5143,,,,,,
1442,Kandahār,Afghanistan,31.6078,65.7053,,,,,,
1443,Nishinomiya-hama,Japan,34.7333,135.3333,,,,,,
1444,Larkana,Pakistan,27.56,68.2264,,,,,,
1445,Cheboksary,Russia,56.1333,47.25,,,,,,
1446,Yuanping,China,38.7299,112.7134,,,,,,
1447,Port Sudan,Sudan,19.6158,37.2164,,,,,,
1448,Edinburgh,United Kingdom,55.953,-3.189,,,,,,
1449,Belgaum,India,15.8667,74.5,,,,,,
1450,Tula,Russia,54.2,37.6167,,,,,,
1451,Suez,Egypt,29.9667,32.5333,,,,,,
1452,Shahe,China,36.8622,114.502,,,,,,
1453,Yazd,Iran,31.8972,54.3678,,,,,,
1454,Serra,Brazil,-20.1289,-40.3078,,,,,,
1455,Nazrēt,Ethiopia,8.55,39.27,,,,,,
1457,Greenville,United States,34.8353,-82.3647,,,,,,
1458,Arāk,Iran,34.08,49.7,,,,,,
1459,San Nicolás de los Garza,Mexico,25.75,-100.2833,,,,,,
1460,Gulbarga,India,17.3333,76.8333,,,,,,
1461,Juiz de Fora,Brazil,-21.7642,-43.3503,,,,,,
1462,Dunhua,China,43.3667,128.2333,,,,,,
1463,Brookhaven,United States,40.8321,-72.9518,,,,,,
1464,Az Zarqā’,Jordan,32.0833,36.1,,,,,,
1465,Americana,Brazil,-22.7392,-47.3314,,,,,,
1466,Ardabīl,Iran,38.25,48.3,,,,,,
1467,Sylhet,Bangladesh,24.9,91.8667,,,,,,
1468,Wichita,United States,37.6896,-97.3442,,,,,,
1469,Toledo,United States,41.6639,-83.5822,,,,,,
1470,Kaihua,China,23.3715,104.2437,,,,,,
1471,Caerdydd,United Kingdom,51.4833,-3.1833,,,,,,
1472,Jāmnagar,India,22.47,70.07,,,,,,
1473,Dhūlia,India,20.9,74.7833,,,,,,
1474,Nampula,Mozambique,-15.1167,39.2667,,,,,,
1475,Gaya,India,24.75,85.0167,,,,,,
1476,Florianópolis,Brazil,-27.5933,-48.553,,,,,,
1477,Chiniot,Pakistan,31.7167,72.9833,,,,,,
1478,Jiannan,China,31.3446,104.1994,,,,,,
1479,Ōita,Japan,33.2333,131.6067,,,,,,
1480,Wuhai,China,39.6708,106.8114,,,,,,
1481,Kaliningrad,Russia,54.7167,20.5,,,,,,
1482,Nangong,China,37.3606,115.3803,,,,,,
1483,Staten Island,United States,40.5834,-74.1496,,,,,,
1484,San Juan,Argentina,-31.5375,-68.5364,,,,,,
1486,Macapá,Brazil,0.033,-51.0653,,,,,,
1487,Shekhupura,Pakistan,31.7083,74.0,,,,,,
1488,Des Moines,United States,41.5725,-93.6105,,,,,,
1489,Piura,Peru,-5.2008,-80.6253,,,,,,
1490,Jiaojiangcun,China,28.6804,121.45,,,,,,
1491,Laohekou,China,32.3849,111.6695,,,,,,
1492,Beian,China,48.2395,126.5037,,,,,,
1493,Fujin,China,47.2489,132.0341,,,,,,
1494,Celaya,Mexico,20.5222,-100.8122,,,,,,
1495,Xiaoyi,China,37.1449,111.7718,,,,,,
1496,Strasbourg,France,48.5833,7.7458,,,,,,
1497,Lanús,Argentina,-34.7,-58.4,,,,,,
1498,Qingzhen,China,26.5555,106.4646,,,,,,
1499,Jiangshan,China,28.7412,118.6225,,,,,,
1500,Ba‘qūbah,Iraq,33.7447,44.6436,,,,,,
1502,Gdańsk,Poland,54.3667,18.6333,,,,,,
1503,Manado,Indonesia,1.4931,124.8413,,,,,,
1504,Jinchang,China,38.5168,102.1866,,,,,,
1505,Kanazawa,Japan,36.6,136.6167,,,,,,
1506,Calabar,Nigeria,4.95,8.325,,,,,,
1507,Long Beach,United States,33.7981,-118.1675,,,,,,
1508,Malatya,Turkey,38.3554,38.3337,,,,,,
1510,Cranbourne,Australia,-38.0996,145.2834,,,,,,
1511,Jalgaon,India,21.0167,75.5667,,,,,,
1512,Port St. Lucie,United States,27.2796,-80.3883,,,,,,
1513,Mauá,Brazil,-23.6678,-46.4608,,,,,,
1514,Fukuyama,Japan,34.4858,133.3625,,,,,,
1515,Tel Aviv-Yafo,Israel,32.08,34.78,,,,,,
1516,Xicheng,China,23.3629,103.1545,,,,,,
1517,Marikina City,Philippines,14.65,121.1,,,,,,
1518,Pyeongtaek,"Korea, South",36.9947,127.0889,,,,,,
1519,Kurnool,India,15.8222,78.035,,,,,,
1520,City of Calamba,Philippines,14.2167,121.1667,,,,,,
1521,Denton,United States,33.2176,-97.1419,,,,,,
1522,Ar Ramādī,Iraq,33.4258,43.2992,,,,,,
1523,Melaka,Malaysia,2.1889,102.2511,,,,,,
1524,Jian’ou,China,27.0387,118.3215,,,,,,
1525,Huadian,China,42.9688,126.7388,,,,,,
1526,Taoyuan District,Taiwan,24.9889,121.3111,,,,,,
1527,Iloilo,Philippines,10.7167,122.5667,,,,,,
1528,Kota Kinabalu,Malaysia,5.975,116.0725,,,,,,
1529,Minzhu,China,43.7192,127.337,,,,,,
1530,Rājshāhi,Bangladesh,24.3667,88.6,,,,,,
1531,Ţanţā,Egypt,30.7833,31.0,,,,,,
1532,Balashikha,Russia,55.8,37.95,,,,,,
1533,Udaipur,India,24.5833,73.6833,,,,,,
1534,Kursk,Russia,51.7372,36.1872,,,,,,
1535,Mariupol,Ukraine,47.1306,37.5639,,,,,,
1536,Bukavu,Congo (Kinshasa),-2.5,28.8667,,,,,,
1537,Hsinchu,Taiwan,24.8047,120.9714,,,,,,
1539,Constantine,Algeria,36.365,6.6147,,,,,,
1540,Tanbei,China,35.0907,112.9317,,,,,,
1541,Ado-Ekiti,Nigeria,7.6167,5.2167,,,,,,
1543,Pasay City,Philippines,14.55,121.0,,,,,,
1544,Madison,United States,43.0826,-89.3931,,,,,,
1545,Baisha,China,29.4774,119.2853,,,,,,
1546,Betim,Brazil,-19.9678,-44.1978,,,,,,
1547,Bellary,India,15.15,76.915,,,,,,
1548,Santiago de Cuba,Cuba,20.0283,-75.8206,,,,,,
1549,Yongji,China,34.867,110.4417,,,,,,
1550,Reno,United States,39.5497,-119.8483,,,,,,
1551,Danjiangkou,China,32.5408,111.5098,,,,,,
1552,Kahramanmaraş,Turkey,37.5875,36.9453,,,,,,
1553,São José do Rio Prêto,Brazil,-20.82,-49.3789,,,,,,
1554,Andijon,Uzbekistan,40.7,72.35,,,,,,
1555,Harrisburg,United States,40.2752,-76.8843,,,,,,
1557,Puerto Plata,Dominican Republic,19.7958,-70.6944,,,,,,
1558,Machida,Japan,35.5486,139.4467,,,,,,
1559,Ning’an,China,44.3429,129.4621,,,,,,
1560,Beira,Mozambique,-19.8333,34.85,,,,,,
1561,Little Rock,United States,34.7256,-92.3576,,,,,,
1562,San Cristóbal,Venezuela,7.7714,-72.2261,,,,,,
1563,Zürich,Switzerland,47.3786,8.54,,,,,,
1564,Zhangjiakou Shi Xuanhua Qu,China,40.5944,115.0243,,,,,,
1565,Sunch’ŏn,"Korea, North",39.4167,125.9333,,,,,,
1566,Diadema,Brazil,-23.6858,-46.6228,,,,,,
1567,Guangming,China,45.3357,122.7765,,,,,,
1568,Sāngli,India,16.8667,74.5667,,,,,,
1569,Tuticorin,India,8.7833,78.1333,,,,,,
1570,Herāt,Afghanistan,34.3738,62.1792,,,,,,
1571,Kupang,Indonesia,-10.1633,123.5778,,,,,,
1572,Jeju,"Korea, South",33.5097,126.5219,,,,,,
1573,Bandar ‘Abbās,Iran,27.2,56.25,,,,,,
1574,Santos,Brazil,-23.9608,-46.3339,,,,,,
1575,Manizales,Colombia,5.0661,-75.4847,,,,,,
1576,Stavropol,Russia,45.05,41.9833,,,,,,
1577,Katsina,Nigeria,12.9889,7.6008,,,,,,
1578,Yogyakarta,Indonesia,-7.8014,110.3644,,,,,,
1579,Calicut,India,11.25,75.7667,,,,,,
1580,Zanjān,Iran,36.6667,48.4833,,,,,,
1581,Welkom,South Africa,-27.9831,26.7208,,,,,,
1582,Ulan-Ude,Russia,51.8272,107.6064,,,,,,
1583,Oakland,United States,37.7903,-122.2165,,,,,,
1584,Mazār-e Sharīf,Afghanistan,36.7,67.1167,,,,,,
1585,Kāshān,Iran,33.9833,51.4333,,,,,,
1586,Kenitra,Morocco,34.25,-6.5833,,,,,,
1588,Maringá,Brazil,-23.425,-51.9389,,,,,,
1589,Khamīs Mushayţ,Saudi Arabia,18.3,42.7333,,,,,,
1590,Masan,"Korea, South",35.1833,128.55,,,,,,
1591,Cusco,Peru,-13.5183,-71.9781,,,,,,
1592,Sevastopol,Ukraine,44.6,33.5333,,,,,,
1593,Mandaluyong City,Philippines,14.5833,121.0333,,,,,,
1594,Porto Velho,Brazil,-8.7619,-63.9039,,,,,,
1595,Florencio Varela,Argentina,-34.8167,-58.2833,,,,,,
1596,Akola,India,20.7333,77.0,,,,,,
1597,Yan’an Beilu,China,44.0222,87.2961,,,,,,
1598,Agadir,Morocco,30.4167,-9.5833,,,,,,
1599,Mogi das Cruzes,Brazil,-23.5228,-46.1931,,,,,,
1600,Durham,United States,35.9794,-78.9031,,,,,,
1601,Likasi,Congo (Kinshasa),-10.9833,26.7333,,,,,,
1602,Buenaventura,Colombia,3.8772,-77.0267,,,,,,
1603,Laval,Canada,45.5833,-73.75,,,,,,
1604,Toyota,Japan,35.0833,137.1567,,,,,,
1605,Winston-Salem,United States,36.1029,-80.2611,,,,,,
1606,Uijeongbu,"Korea, South",37.7486,127.0389,,,,,,
1607,Tver,Russia,56.8578,35.9219,,,,,,
1608,Elazığ,Turkey,38.6667,39.2167,,,,,,
1609,Akure,Nigeria,7.25,5.195,,,,,,
1610,Hpa-An,Myanmar,16.8906,97.6333,,,,,,
1611,Bonita Springs,United States,26.3559,-81.7861,,,,,,
1612,Mishan,China,45.542,131.8666,,,,,,
1613,Hailin,China,44.5735,129.3825,,,,,,
1614,Seremban,Malaysia,2.7297,101.9381,,,,,,
1615,Lecheng,China,25.1307,113.3472,,,,,,
1616,Zhengjiatun,China,43.513,123.5003,,,,,,
1617,Luhansk,Ukraine,48.5833,39.3333,,,,,,
1618,Pencheng,China,29.6792,115.6611,,,,,,
1619,Magnitogorsk,Russia,53.3833,59.0333,,,,,,
1620,Takamatsu,Japan,34.35,134.05,,,,,,
1621,Angeles City,Philippines,15.1472,120.5847,,,,,,
1622,El Obeid,Sudan,13.1833,30.2167,,,,,,
1623,Dalai,China,45.505,124.2863,,,,,,
1624,Xingren,China,25.4352,105.1907,,,,,,
1625,Kolwezi,Congo (Kinshasa),-10.7167,25.4667,,,,,,
1626,Wenlan,China,23.3689,103.3881,,,,,,
1627,Indio,United States,33.7346,-116.2346,,,,,,
1628,Palm Coast,United States,29.5392,-81.246,,,,,,
1629,Arusha,Tanzania,-3.3667,36.6833,,,,,,
1630,Fenyang,China,37.2652,111.7793,,,,,,
1631,Paju,"Korea, South",37.8328,126.8169,,,,,,
1632,Oujda-Angad,Morocco,34.69,-1.91,,,,,,
1633,Mataram,Indonesia,-8.5833,116.1167,,,,,,
1634,Chattanooga,United States,35.0657,-85.2488,,,,,,
1635,Lapu-Lapu City,Philippines,10.3127,123.9488,,,,,,
1636,Jhang City,Pakistan,31.2681,72.3181,,,,,,
1637,Nagqu,China,31.4766,92.0569,,,,,,
1638,Kisumu,Kenya,-0.1,34.75,,,,,,
1639,Jayapura,Indonesia,-2.5333,140.7167,,,,,,
1640,Montes Claros,Brazil,-16.7322,-43.8636,,,,,,
1641,Rio Branco,Brazil,-9.9781,-67.8117,,,,,,
1642,Toyama,Japan,36.7,137.22,,,,,,
1643,Fangting,China,31.1282,104.1695,,,,,,
1644,Spokane,United States,47.6671,-117.433,,,,,,
1645,Sochi,Russia,43.5853,39.7203,,,,,,
1646,Bhāgalpur,India,25.25,87.0167,,,,,,
1647,Ivanovo,Russia,57.0,41.0,,,,,,
1648,Osogbo,Nigeria,7.7667,4.5667,,,,,,
1649,Imus,Philippines,14.4297,120.9367,,,,,,
1650,Ciudad Obregón,Mexico,27.4939,-109.9389,,,,,,
1651,Türkmenabat,Turkmenistan,39.1,63.5667,,,,,,
1652,Zaria,Nigeria,11.0667,7.7,,,,,,
1653,Namangan,Uzbekistan,40.9953,71.6725,,,,,,
1654,Bryansk,Russia,53.25,34.3667,,,,,,
1655,Taiping,China,32.0691,108.0351,,,,,,
1656,Maracay,Venezuela,10.2469,-67.5958,,,,,,
1657,Jiexiu,China,37.0282,111.9103,,,,,,
1658,Mbale,Uganda,1.0806,34.175,,,,,,
1659,Taraz,Kazakhstan,42.8833,71.3667,,,,,,
1660,Asyūţ,Egypt,27.1869,31.1714,,,,,,
1661,Santa Fe,Argentina,-31.6333,-60.7,,,,,,
1662,Campina Grande,Brazil,-7.2306,-35.8811,,,,,,
1663,Nagasaki,Japan,32.7833,129.8667,,,,,,
1664,Szczecin,Poland,53.4247,14.5553,,,,,,
1665,Ghulja,China,43.9,81.35,,,,,,
1666,Syracuse,United States,43.0409,-76.1438,,,,,,
1667,Carapicuíba,Brazil,-23.5228,-46.8358,,,,,,
1668,Quilon,India,8.8853,76.5864,,,,,,
1669,Jundiaí,Brazil,-23.1864,-46.8842,,,,,,
1670,Gifu,Japan,35.4167,136.7667,,,,,,
1671,Lancaster,United States,40.0421,-76.3012,,,,,,
1672,Eindhoven,Netherlands,51.4408,5.4778,,,,,,
1673,Sīkar,India,27.6119,75.1397,,,,,,
1674,Tumkūr,India,13.33,77.1,,,,,,
1675,Jiangjiafan,China,31.0304,112.1,,,,,,
1676,Dera Ghazi Khan,Pakistan,30.05,70.6333,,,,,,
1677,Arlington,United States,32.6998,-97.125,,,,,,
1678,Miyazaki,Japan,31.9167,131.4167,,,,,,
1679,Stockton,United States,37.9765,-121.3109,,,,,,
1680,Bhātpāra,India,22.8667,88.4167,,,,,,
1681,Sandakan,Malaysia,5.8388,118.1173,,,,,,
1682,Hejin,China,35.5914,110.706,,,,,,
1683,Thanh Hóa,Vietnam,19.8075,105.7764,,,,,,
1684,Muzaffarnagar,India,29.4708,77.7033,,,,,,
1685,Poughkeepsie,United States,41.6949,-73.921,,,,,,
1686,Campos,Brazil,-21.7523,-41.3304,,,,,,
1687,Metz,France,49.1203,6.1778,,,,,,
1688,Nha Trang,Vietnam,12.2495,109.1908,,,,,,
1689,Belgorod,Russia,50.6,36.6,,,,,,
1690,Yola,Nigeria,9.2,12.4833,,,,,,
1691,Lobito,Angola,-12.3597,13.5308,,,,,,
1692,Saurimo,Angola,-9.6589,20.3934,,,,,,
1693,Olinda,Brazil,-8.0089,-34.855,,,,,,
1694,Bologna,Italy,44.4939,11.3428,,,,,,
1695,Ad Dīwānīyah,Iraq,31.9892,44.9247,,,,,,
1696,Gujrat,Pakistan,32.5736,74.0789,,,,,,
1697,Hancheng,China,35.4603,110.4292,,,,,,
1698,Fuyu,China,45.1804,124.82,,,,,,
1699,Karamay,China,45.5928,84.8711,,,,,,
1700,Kākināda,India,16.9333,82.2167,,,,,,
1701,Augusta,United States,33.3645,-82.0708,,,,,,
1702,Bhīlwāra,India,25.35,74.6333,,,,,,
1703,Tieli,China,46.9804,128.045,,,,,,
1704,Cilegon,Indonesia,-6.0027,106.0112,,,,,,
1706,Nizāmābād,India,18.6704,78.1,,,,,,
1707,Boise,United States,43.6007,-116.2312,,,,,,
1708,Tonalá,Mexico,20.6167,-103.2333,,,,,,
1709,Mwanza,Tanzania,-2.5167,32.9,,,,,,
1710,Aqtöbe,Kazakhstan,50.3,57.1667,,,,,,
1711,Oxnard,United States,34.1963,-119.1815,,,,,,
1712,Tétouan,Morocco,35.5667,-5.3667,,,,,,
1713,Okazaki,Japan,34.95,137.1667,,,,,,
1714,Cariacica,Brazil,-20.2639,-40.42,,,,,,
1715,Ḩā’il,Saudi Arabia,27.5236,41.7001,,,,,,
1716,Las Palmas,Spain,28.1272,-15.4314,,,,,,
1717,Yidu,China,30.388,111.4505,,,,,,
1718,Lianzhou,China,24.7868,112.3735,,,,,,
1720,Scranton,United States,41.4044,-75.6649,,,,,,
1721,Brno,Czechia,49.1953,16.6083,,,,,,
1723,Modesto,United States,37.6374,-121.0028,,,,,,
1724,Kissimmee,United States,28.3042,-81.4164,,,,,,
1725,Pasto,Colombia,1.2136,-77.2811,,,,,,
1726,Ichinomiya,Japan,35.3039,136.8031,,,,,,
1727,Qazvīn,Iran,36.2688,50.0041,,,,,,
1728,Irapuato,Mexico,20.6667,-101.35,,,,,,
1729,Novi Sad,Serbia,45.2644,19.8317,,,,,,
1730,Shihezi,China,44.3,86.0333,,,,,,
1731,Shache,China,38.4261,77.25,,,,,,
1732,Pānihāti,India,22.69,88.37,,,,,,
1733,Huancayo,Peru,-12.0667,-75.2167,,,,,,
1735,Malabon,Philippines,14.6625,120.9567,,,,,,
1736,Pétion-Ville,Haiti,18.5098,-72.2856,,,,,,
1737,Sintra,Portugal,38.7974,-9.3904,,,,,,
1738,Parbhani,India,19.2704,76.76,,,,,,
1739,Usulután,El Salvador,13.35,-88.45,,,,,,
1740,Youngstown,United States,41.0993,-80.6463,,,,,,
1741,Christchurch,New Zealand,-43.5309,172.6365,,,,,,
1742,Hatay,Turkey,36.2,36.15,,,,,,
1743,Iquitos,Peru,-3.7333,-73.25,,,,,,
1744,Sivas,Turkey,39.75,37.0167,,,,,,
1745,Helixi,China,30.6267,118.9861,,,,,,
1746,A Coruña,Spain,43.3713,-8.4188,,,,,,
1747,Manukau City,New Zealand,-37.0,174.885,,,,,,
1748,Stoke-on-Trent,United Kingdom,53.0,-2.1833,,,,,,
1749,Cumaná,Venezuela,10.45,-64.1667,,,,,,
1750,Vinnytsia,Ukraine,49.2372,28.4672,,,,,,
1751,Rohtak,India,28.9,76.5667,,,,,,
1752,Lātūr,India,18.4004,76.57,,,,,,
1754,Sanandaj,Iran,35.3097,46.9989,,,,,,
1755,Nuevo Laredo,Mexico,27.4861,-99.5069,,,,,,
1756,Ambon,Indonesia,-3.705,128.17,,,,,,
1757,Mandaue City,Philippines,10.3333,123.9333,,,,,,
1758,Keelung,Taiwan,25.1283,121.7419,,,,,,
1759,Toyohashi,Japan,34.7667,137.3833,,,,,,
1760,La Florida,Chile,-33.55,-70.5667,,,,,,
1762,Lengshuijiang,China,27.6858,111.4279,,,,,,
1763,Anguo,China,38.4177,115.3204,,,,,,
1764,Rājapālaiyam,India,9.4204,77.58,,,,,,
1765,Rodriguez,Philippines,14.7167,121.1167,,,,,,
1767,Az Zubayr,Iraq,30.3892,47.7081,,,,,,
1768,Al Qaţīf,Saudi Arabia,26.5196,50.0115,,,,,,
1769,Cuernavaca,Mexico,18.9186,-99.2342,,,,,,
1770,Nicolás Romero,Mexico,19.5833,-99.3667,,,,,,
1771,Huichang,China,34.9136,112.7852,,,,,,
1772,Vitsyebsk,Belarus,55.1833,30.1667,,,,,,
1773,Nagano,Japan,36.6486,138.1928,,,,,,
1774,Bauru,Brazil,-22.3147,-49.0606,,,,,,
1775,Yanjiao,China,39.9432,116.8036,,,,,,
1776,Bochum,Germany,51.4833,7.2167,,,,,,
1777,Anápolis,Brazil,-16.3269,-48.9528,,,,,,
1778,Coventry,United Kingdom,52.4081,-1.5106,,,,,,
1779,Zalantun,China,48.0033,122.7365,,,,,,
1780,Tecámac,Mexico,19.7131,-98.9683,,,,,,
1781,Ciudad General Escobedo,Mexico,25.7933,-100.1583,,,,,,
1782,Wŏnsan,"Korea, North",39.1475,127.4461,,,,,,
1783,Kocaeli,Turkey,40.7656,29.9406,,,,,,
1784,Bengkulu,Indonesia,-3.7956,102.2592,,,,,,
1785,Shuanghejiedao,China,30.3866,106.7756,,,,,,
1786,Surgut,Russia,61.25,73.4333,,,,,,
1787,Bobo-Dioulasso,Burkina Faso,11.1833,-4.2833,,,,,,
1788,Umuahia,Nigeria,5.5333,7.4833,,,,,,
1789,Gedaref,Sudan,14.0333,35.3833,,,,,,
1790,Palu,Indonesia,-0.895,119.8594,,,,,,
1791,Santa Rosa,Philippines,14.3167,121.1167,,,,,,
1792,Pokhara,Nepal,28.2097,83.9853,,,,,,
1793,Mahilyow,Belarus,53.9089,30.343,,,,,,
1794,Wudalianchi,China,48.6433,126.1408,,,,,,
1795,Sungai Petani,Malaysia,5.65,100.48,,,,,,
1796,Nam Định,Vietnam,20.42,106.1683,,,,,,
1797,Sinŭiju,"Korea, North",40.1,124.4,,,,,,
1798,Vitória,Brazil,-20.3189,-40.3378,,,,,,
1799,Hrodna,Belarus,53.6667,23.8167,,,,,,
1801,Bilbao,Spain,43.2569,-2.9236,,,,,,
1802,São Vicente,Brazil,-23.9633,-46.3922,,,,,,
1803,Cubal,Angola,-13.0333,14.2333,,,,,,
1804,Yong’an,China,25.9733,117.3593,,,,,,
1805,Itaquaquecetuba,Brazil,-23.4864,-46.3486,,,,,,
1806,Wuppertal,Germany,51.2667,7.1833,,,,,,
1807,Minatitlán,Mexico,17.9833,-94.55,,,,,,
1808,Nizhniy Tagil,Russia,57.9167,59.9667,,,,,,
1809,Ponta Grossa,Brazil,-25.095,-50.1619,,,,,,
1810,Hongzhai,China,35.0476,104.6394,,,,,,
1811,Wakayama,Japan,34.2333,135.1667,,,,,,
1812,Pavlodar,Kazakhstan,52.3156,76.9564,,,,,,
1813,Gimpo,"Korea, South",37.6236,126.7142,,,,,,
1814,Rahimyar Khan,Pakistan,28.4202,70.2952,,,,,,
1817,Corrientes,Argentina,-27.4833,-58.8167,,,,,,
1818,San Pedro,Philippines,14.3583,121.0583,,,,,,
1819,Neiva,Colombia,2.9275,-75.2875,,,,,,
1820,Arkhangelsk,Russia,64.55,40.5333,,,,,,
1822,Koshigaya,Japan,35.8911,139.7908,,,,,,
1823,Cabimas,Venezuela,10.4,-71.4333,,,,,,
1824,Yakeshi,China,49.2842,120.7283,,,,,,
1825,Baguio City,Philippines,16.4152,120.5956,,,,,,
1826,Ahmadnagar,India,19.0833,74.7333,,,,,,
1827,Fayetteville,United States,36.0713,-94.166,,,,,,
1828,Canoas,Brazil,-29.92,-51.18,,,,,,
1829,Holguín,Cuba,20.8872,-76.2631,,,,,,
1830,Qoqon,Uzbekistan,40.5404,70.94,,,,,,
1831,Anaheim,United States,33.839,-117.8572,,,,,,
1832,Yingmen,China,39.83,97.73,,,,,,
1833,Piracicaba,Brazil,-22.725,-47.6489,,,,,,
1834,Bydgoszcz,Poland,53.1167,18.0,,,,,,
1835,Antofagasta,Chile,-23.6464,-70.398,,,,,,
1836,Khorramābād,Iran,33.4667,48.35,,,,,,
1837,Rājahmundry,India,16.9833,81.7833,,,,,,
1838,Chita,Russia,52.0333,113.5,,,,,,
1839,Caruaru,Brazil,-8.2828,-35.9758,,,,,,
1840,Makiivka,Ukraine,48.0556,37.9611,,,,,,
1841,Chitungwiza,Zimbabwe,-18.0,31.1,,,,,,
1842,Pensacola,United States,30.4427,-87.1886,,,,,,
1843,Victorville,United States,34.5277,-117.3536,,,,,,
1844,Tanch’ŏn,"Korea, North",40.458,128.911,,,,,,
1845,Tokorozawa,Japan,35.7994,139.4689,,,,,,
1846,Sumqayıt,Azerbaijan,40.5917,49.6397,,,,,,
1847,Kūstī,Sudan,13.17,32.66,,,,,,
1848,Al ‘Amārah,Iraq,31.8416,47.1512,,,,,,
1849,Cuddapah,India,14.4667,78.8167,,,,,,
1850,Simferopol,Ukraine,44.9484,34.1,,,,,,
1851,Plovdiv,Bulgaria,42.1433,24.7489,,,,,,
1852,Tarlac City,Philippines,15.4802,120.5979,,,,,,
1853,Ōtsu,Japan,35.0167,135.85,,,,,,
1854,Pelotas,Brazil,-31.7719,-52.3428,,,,,,
1856,Greensboro,United States,36.0956,-79.8269,,,,,,
1857,Iligan,Philippines,8.2333,124.25,,,,,,
1858,East London,South Africa,-33.0153,27.9116,,,,,,
1859,Franca,Brazil,-20.5389,-47.4008,,,,,,
1860,Brest,Belarus,52.0847,23.6569,,,,,,
1861,Kaluga,Russia,54.5333,36.2667,,,,,,
1862,Yeosu,"Korea, South",34.7368,127.7458,,,,,,
1863,Corpus Christi,United States,27.726,-97.3755,,,,,,
1864,Muzaffarpur,India,26.12,85.3833,,,,,,
1865,Lublin,Poland,51.2333,22.5667,,,,,,
1866,Lianran,China,24.9211,102.4778,,,,,,
1867,Alwar,India,27.5667,76.6167,,,,,,
1868,Baishan,China,41.9377,126.4179,,,,,,
1869,Kawagoe,Japan,35.9251,139.4858,,,,,,
1870,Farg‘ona,Uzbekistan,40.3864,71.7864,,,,,,
1871,Tamuramachi-moriyama,Japan,37.3252,140.4134,,,,,,
1872,Brahmapur,India,19.32,84.8,,,,,,
1873,Buôn Ma Thuột,Vietnam,12.6667,108.05,,,,,,
1874,Biñan,Philippines,14.3333,121.0833,,,,,,
1875,Semey,Kazakhstan,50.4111,80.2275,,,,,,
1876,Tarsus,Turkey,36.9167,34.9,,,,,,
1877,Alicante,Spain,38.3453,-0.4831,,,,,,
1878,Randburg,South Africa,-26.0936,28.0064,,,,,,
1879,Tepic,Mexico,21.5083,-104.8931,,,,,,
1880,Jitpur,Nepal,27.6666,85.3333,,,,,,
1881,Kaesŏng,"Korea, North",37.964,126.5644,,,,,,
1882,Beni,Congo (Kinshasa),0.5,29.4667,,,,,,
1883,Petrolina,Brazil,-9.3928,-40.5078,,,,,,
1884,Chinju,"Korea, South",35.1928,128.0847,,,,,,
1885,Tangdong,China,25.9755,113.2302,,,,,,
1886,Butuan,Philippines,8.9534,125.5288,,,,,,
1887,Reading,United Kingdom,51.4542,-0.9731,,,,,,
1888,Uberaba,Brazil,-19.7478,-47.9319,,,,,,
1889,Belfast,United Kingdom,54.5964,-5.93,,,,,,
1890,Iwaki,Japan,37.0333,140.8833,,,,,,
1891,Blida,Algeria,36.4722,2.8333,,,,,,
1892,Hangu,China,39.232,117.777,,,,,,
1893,Yingzhong,China,32.2381,119.8133,,,,,,
1894,Viña del Mar,Chile,-33.0245,-71.5518,,,,,,
1895,Bielefeld,Germany,52.0167,8.5333,,,,,,
1896,Cuenca,Ecuador,-2.8974,-79.0045,,,,,,
1897,Fort Wayne,United States,41.0886,-85.1437,,,,,,
1898,Lipa City,Philippines,13.9411,121.1622,,,,,,
1899,Wad Medani,Sudan,14.4,33.51,,,,,,
1900,Ribeirão das Neves,Brazil,-19.7669,-44.0869,,,,,,
1901,Kāmārhāti,India,22.67,88.37,,,,,,
1902,Maebashi,Japan,36.3833,139.0667,,,,,,
1903,Thessaloníki,Greece,40.6403,22.9356,,,,,,
1904,Gəncə,Azerbaijan,40.6828,46.3606,,,,,,
1905,Bilāspur,India,22.15,82.0167,,,,,,
1906,Santa Ana,United States,33.7366,-117.8819,,,,,,
1907,Mymensingh,Bangladesh,24.7504,90.38,,,,,,
1908,Al Fayyūm,Egypt,29.3,30.8333,,,,,,
1909,Flint,United States,43.0235,-83.6922,,,,,,
1910,Kendari,Indonesia,-3.9675,122.5947,,,,,,
1911,Balıkesir,Turkey,39.6511,27.8842,,,,,,
1912,Az Zaqāzīq,Egypt,30.5667,31.5,,,,,,
1913,Thái Nguyên,Vietnam,21.6,105.85,,,,,,
1914,Smolensk,Russia,54.7828,32.0453,,,,,,
1915,Asahikawa,Japan,43.7706,142.365,,,,,,
1916,Islip,United States,40.7384,-73.1887,,,,,,
1917,Wŏnju,"Korea, South",37.3417,127.9208,,,,,,
1918,Dahūk,Iraq,36.85,42.9833,,,,,,
1919,Batangas,Philippines,13.75,121.05,,,,,,
1920,Mathura,India,27.4833,77.6833,,,,,,
1921,Barishal,Bangladesh,22.7,90.3667,,,,,,
1922,Bamiantong,China,44.9164,130.5212,,,,,,
1923,Patiāla,India,30.3204,76.385,,,,,,
1924,Cainta,Philippines,14.5667,121.1167,,,,,,
1925,Bonn,Germany,50.7339,7.0997,,,,,,
1926,São José dos Pinhais,Brazil,-25.535,-49.2058,,,,,,
1927,Vũng Tàu,Vietnam,10.4042,107.1417,,,,,,
1928,Markham,Canada,43.8767,-79.2633,,,,,,
1929,Saugor,India,23.8504,78.75,,,,,,
1930,Malmö,Sweden,55.5932,13.0214,,,,,,
1931,Roodepoort,South Africa,-26.1625,27.8725,,,,,,
1932,Gómez Palacio,Mexico,25.5611,-103.4983,,,,,,
1933,Volzhskiy,Russia,48.7833,44.7667,,,,,,
1934,Taourirt,Morocco,34.41,-2.89,,,,,,
1935,Bijāpur,India,16.8244,75.7154,,,,,,
1936,Sukabumi,Indonesia,-6.9197,106.9272,,,,,,
1938,Taytay,Philippines,14.5692,121.1325,,,,,,
1939,Ulanhot,China,46.0726,122.0719,,,,,,
1940,Nakuru,Kenya,-0.2833,36.0667,,,,,,
1941,Yunzhong,China,39.8143,113.0946,,,,,,
1942,Al Fallūjah,Iraq,33.35,43.7833,,,,,,
1943,Kōchi,Japan,33.5589,133.5314,,,,,,
1944,Boa Vista,Brazil,2.82,-60.6719,,,,,,
1945,Gwangmyeongni,"Korea, South",37.4772,126.8664,,,,,,
1946,Bari,Italy,41.1253,16.8667,,,,,,
1947,Pucallpa,Peru,-8.3833,-74.55,,,,,,
1948,Kuching,Malaysia,1.5397,110.3542,,,,,,
1949,Zinder,Niger,13.8,8.9833,,,,,,
1950,Caucaia,Brazil,-3.7328,-38.6558,,,,,,
1951,Gonder,Ethiopia,12.6,37.4667,,,,,,
1953,Mekele,Ethiopia,13.4969,39.4769,,,,,,
1954,Kulti,India,23.73,86.85,,,,,,
1956,Gonaïves,Haiti,19.4456,-72.6883,,,,,,
1957,Lansing,United States,42.7142,-84.5601,,,,,,
1958,Naha,Japan,26.2122,127.6789,,,,,,
1959,Binxian,China,35.0364,108.0764,,,,,,
1961,Lexington,United States,38.0423,-84.4587,,,,,,
1962,Hotan,China,37.1012,79.9327,,,,,,
1963,Uíge,Angola,-7.6167,15.05,,,,,,
1965,Kurgan,Russia,55.4408,65.3411,,,,,,
1967,Temara,Morocco,33.9234,-6.9076,,,,,,
1968,Uruapan,Mexico,19.4208,-102.0628,,,,,,
1969,Camagüey,Cuba,21.3786,-77.9186,,,,,,
1970,Ann Arbor,United States,42.2755,-83.7312,,,,,,
1971,San Salvador de Jujuy,Argentina,-24.1856,-65.2994,,,,,,
1972,Timişoara,Romania,45.7597,21.23,,,,,,
1974,Al Kūt,Iraq,32.4907,45.8304,,,,,,
1975,Tapachula,Mexico,14.9,-92.2667,,,,,,
1976,Shāhjānpur,India,27.8804,79.905,,,,,,
1977,Cherepovets,Russia,59.1333,37.9167,,,,,,
1978,San Miguelito,Panama,9.05,-79.5,,,,,,
1979,Menongue,Angola,-14.6585,17.691,,,,,,
1980,Poltava,Ukraine,49.5744,34.5686,,,,,,
1981,Henderson,United States,36.0133,-115.038,,,,,,
1983,Kaech’ŏn,"Korea, North",39.6986,125.9061,,,,,,
1984,Asan,"Korea, South",36.35,126.9167,,,,,,
1985,Coatzacoalcos,Mexico,18.15,-94.4333,,,,,,
1986,Huntsville,United States,34.6988,-86.6412,,,,,,
1987,Öskemen,Kazakhstan,49.99,82.6149,,,,,,
1988,Tampico,Mexico,22.2553,-97.8686,,,,,,
1989,Trichūr,India,10.52,76.21,,,,,,
1990,Cluj-Napoca,Romania,46.7667,23.6,,,,,,
1991,General Trias,Philippines,14.3833,120.8833,,,,,,
1992,Cirebon,Indonesia,-6.7167,108.5667,,,,,,
1993,Boaco,Nicaragua,12.4722,-85.6586,,,,,,
1994,Cà Mau,Vietnam,9.1833,105.15,,,,,,
1995,Cabuyao,Philippines,14.275,121.125,,,,,,
1996,Vologda,Russia,59.2167,39.9,,,,,,
1997,Saransk,Russia,54.1833,45.1833,,,,,,
1998,Mobile,United States,30.6783,-88.1162,,,,,,
2000,Münster,Germany,51.9625,7.6256,,,,,,
2001,Barddhamān,India,23.25,87.85,,,,,,
2002,Toshima,Japan,35.7333,139.7167,,,,,,
2003,Karlsruhe,Germany,49.0167,8.4,,,,,,
2004,Kasur,Pakistan,31.1167,74.45,,,,,,
2005,Yakou,China,33.2937,113.5203,,,,,,
2006,Orël,Russia,52.9686,36.0694,,,,,,
2007,Safi,Morocco,32.2833,-9.2333,,,,,,
2008,Shahr-e Qods,Iran,35.7214,51.1089,,,,,,
2009,Vitória da Conquista,Brazil,-14.8661,-40.8394,,,,,,
2010,Ḩamāh,Syria,35.1333,36.75,,,,,,
2011,Guarujá,Brazil,-23.9936,-46.2564,,,,,,
2012,Catania,Italy,37.5027,15.0873,,,,,,
2013,Purnea,India,25.78,87.47,,,,,,
2014,Datang,China,22.9476,113.9326,,,,,,
2015,Fort Collins,United States,40.5478,-105.0656,,,,,,
2016,Port Elizabeth,South Africa,-33.9581,25.6,,,,,,
2017,Alanya,Turkey,36.5436,31.9997,,,,,,
2018,Asheville,United States,35.5704,-82.5536,,,,,,
2019,Santa Clarita,United States,34.4175,-118.4964,,,,,,
2020,Gorgān,Iran,36.83,54.48,,,,,,
2021,Quy Nhơn,Vietnam,13.7696,109.2314,,,,,,
2022,Sambalpur,India,21.4704,83.9701,,,,,,
2023,Yokkaichi,Japan,34.9667,136.6167,,,,,,
2024,Chalco,Mexico,19.2647,-98.8975,,,,,,
2025,Mannheim,Germany,49.4878,8.4661,,,,,,
2026,Namp’o,"Korea, North",38.7333,125.4,,,,,,
2027,Shahrīār,Iran,35.6597,51.0592,,,,,,
2028,Cobán,Guatemala,15.4833,-90.3667,,,,,,
2029,Kasugai,Japan,35.25,136.9667,,,,,,
2030,Sapele,Nigeria,5.8904,5.68,,,,,,
2031,Blumenau,Brazil,-26.9189,-49.0658,,,,,,
2032,Sariwŏn,"Korea, North",38.5039,125.7589,,,,,,
2033,St. Catharines,Canada,43.1833,-79.2333,,,,,,
2034,Matadi,Congo (Kinshasa),-5.8167,13.4833,,,,,,
2035,Niagara Falls,Canada,43.06,-79.1067,,,,,,
2036,Fīrozābād,India,27.15,78.3949,,,,,,
2037,San Fernando,Philippines,15.0333,120.6833,,,,,,
2038,St. Paul,United States,44.9477,-93.104,,,,,,
2039,Vladikavkaz,Russia,43.04,44.6775,,,,,,
2040,Yakutsk,Russia,62.0272,129.7319,,,,,,
2042,Hisar,India,29.1489,75.7367,,,,,,
2043,Puerto La Cruz,Venezuela,10.2167,-64.6167,,,,,,
2044,Podolsk,Russia,55.4297,37.5444,,,,,,
2045,Ciudad Victoria,Mexico,23.7333,-99.1333,,,,,,
2046,Ciudad del Este,Paraguay,-25.5167,-54.6167,,,,,,
2047,Vaughan,Canada,43.8333,-79.5,,,,,,
2048,Ōakashichō,Japan,34.6431,134.9975,,,,,,
2049,Pekalongan,Indonesia,-6.8883,109.6753,,,,,,
2050,Adıyaman,Turkey,37.7644,38.2763,,,,,,
2051,Vila Nova de Gaia,Portugal,41.1333,-8.6167,,,,,,
2052,Curepipe,Mauritius,-20.3162,57.5166,,,,,,
2053,Cabanatuan City,Philippines,15.4833,120.9667,,,,,,
2054,Paulista,Brazil,-7.9408,-34.8728,,,,,,
2055,Oaxaca,Mexico,17.0833,-96.75,,,,,,
2056,Armenia,Colombia,4.5389,-75.6725,,,,,,
2057,Akita,Japan,39.7197,140.1025,,,,,,
2058,San Bernardo,Chile,-33.6,-70.7167,,,,,,
2059,Wollongong,Australia,-34.4331,150.8831,,,,,,
2061,Awka,Nigeria,6.2,7.0667,,,,,,
2062,Iksan,"Korea, South",35.9439,126.9544,,,,,,
2063,Taubaté,Brazil,-23.0333,-45.55,,,,,,
2064,Antioch,United States,37.9789,-121.7958,,,,,,
2065,Lakeland,United States,28.0556,-81.9545,,,,,,
2066,Sóc Trăng,Vietnam,9.6,105.9719,,,,,,
2067,Āwasa,Ethiopia,7.05,38.4667,,,,,,
2068,Mardan,Pakistan,34.1958,72.0447,,,,,,
2069,Popayán,Colombia,2.4411,-76.6061,,,,,,
2070,Praia Grande,Brazil,-24.0058,-46.4028,,,,,,
2071,Qianzhou,China,28.3185,109.7318,,,,,,
2072,Cotabato,Philippines,7.2167,124.25,,,,,,
2073,Valladolid,Spain,41.6528,-4.7236,,,,,,
2074,Mossoró,Brazil,-5.1878,-37.3439,,,,,,
2075,Coatepeque,Guatemala,14.7,-91.8667,,,,,,
2076,Bīdar,India,17.9229,77.5175,,,,,,
2077,Białystok,Poland,53.1167,23.1667,,,,,,
2079,Murmansk,Russia,68.9667,33.0833,,,,,,
2080,Ar Raqqah,Syria,35.95,39.0167,,,,,,
2081,Afyonkarahisar,Turkey,38.7581,30.5386,,,,,,
2082,Vigo,Spain,42.2314,-8.7124,,,,,,
2083,Jember,Indonesia,-8.1727,113.6873,,,,,,
2084,Bahía Blanca,Argentina,-38.7167,-62.2667,,,,,,
2085,İskenderun,Turkey,36.5804,36.17,,,,,,
2086,Al Mubarraz,Saudi Arabia,25.41,49.5808,,,,,,
2087,Petrópolis,Brazil,-22.505,-43.1789,,,,,,
2088,Al Kharj,Saudi Arabia,24.1556,47.312,,,,,,
2089,Rāmpur,India,28.8154,79.025,,,,,,
2090,Najrān,Saudi Arabia,17.4917,44.1322,,,,,,
2091,Chernihiv,Ukraine,51.4939,31.2947,,,,,,
2092,Yangsan,"Korea, South",35.3386,129.0386,,,,,,
2093,Comilla,Bangladesh,23.45,91.2,,,,,,
2094,Oyster Bay,United States,40.7845,-73.5139,,,,,,
2095,Valparaíso,Chile,-33.0458,-71.6197,,,,,,
2096,Augsburg,Germany,48.3717,10.8983,,,,,,
2097,Mbeya,Tanzania,-8.9,33.45,,,,,,
2098,Limeira,Brazil,-22.5647,-47.4017,,,,,,
2099,Rangpur,Bangladesh,25.75,89.25,,,,,,
2100,Shiliguri,India,26.72,88.42,,,,,,
2101,Aksaray,Turkey,38.3686,34.0297,,,,,,
2102,Navotas,Philippines,14.6667,120.9417,,,,,,
2103,Çorum,Turkey,40.5489,34.9533,,,,,,
2104,Bāli,India,22.65,88.34,,,,,,
2105,Ismailia,Egypt,30.5833,32.2667,,,,,,
2106,Vila Teixeira da Silva,Angola,-12.1958,15.8556,,,,,,
2107,Pānīpat,India,29.4004,76.97,,,,,,
2108,Delmas,Haiti,18.55,-72.3,,,,,,
2109,Batna,Algeria,35.55,6.1667,,,,,,
2110,Kunp’o,"Korea, South",37.3675,126.9469,,,,,,
2111,Tambov,Russia,52.7167,41.4333,,,,,,
2112,Iaşi,Romania,47.1622,27.5889,,,,,,
2113,Thiès,Senegal,14.7833,-16.9167,,,,,,
2114,Makurdi,Nigeria,7.73,8.53,,,,,,
2115,Kherson,Ukraine,46.6333,32.6,,,,,,
2116,Groznyy,Russia,43.3125,45.6986,,,,,,
2117,Hong’an,China,47.21,123.61,,,,,,
2118,Bafoussam,Cameroon,5.4667,10.4167,,,,,,
2119,Resistencia,Argentina,-27.4514,-58.9867,,,,,,
2120,Braşov,Romania,45.65,25.6,,,,,,
2121,Kassel,Germany,51.3166,9.4912,,,,,,
2122,Juliaca,Peru,-15.4908,-70.1269,,,,,,
2123,Karīmnagar,India,18.4333,79.15,,,,,,
2124,Morioka,Japan,39.6833,141.15,,,,,,
2125,Sétif,Algeria,36.19,5.41,,,,,,
2126,Trenton,United States,40.2236,-74.7641,,,,,,
2127,Kaunas,Lithuania,54.9,23.9333,,,,,,
2128,Mulhouse,France,47.75,7.34,,,,,,
2129,Sekondi,Ghana,4.9433,-1.704,,,,,,
2130,Lincoln,United States,40.809,-96.6788,,,,,,
2131,Bhuj,India,23.2504,69.81,,,,,,
2132,Ichalkaranji,India,16.7,74.47,,,,,,
2133,Tirupati,India,13.65,79.42,,,,,,
2135,Anchorage,United States,61.1508,-149.1091,,,,,,
2136,Punto Fijo,Venezuela,11.7167,-70.1833,,,,,,
2137,Sincelejo,Colombia,9.2994,-75.3958,,,,,,
2138,Plano,United States,33.0502,-96.7487,,,,,,
2139,Irvine,United States,33.6772,-117.7738,,,,,,
2140,Camaçari,Brazil,-12.6978,-38.3239,,,,,,
2141,Orléans,France,47.9025,1.909,,,,,,
2142,Binangonan,Philippines,14.4514,121.1919,,,,,,
2143,Suzano,Brazil,-23.5428,-46.3108,,,,,,
2144,Hospet,India,15.2667,76.4,,,,,,
2145,Ostrava,Czechia,49.8356,18.2925,,,,,,
2146,Tacna,Peru,-18.0556,-70.2483,,,,,,
2147,Korhogo,Côte D’Ivoire,9.4578,-5.6294,,,,,,
2148,Constanţa,Romania,44.1733,28.6383,,,,,,
2149,Haifa,Israel,32.8,34.9833,,,,,,
2150,Coacalco,Mexico,19.6333,-99.0931,,,,,,
2151,Crato,Brazil,-7.2342,-39.4094,,,,,,
2152,Limoges,France,45.8353,1.2625,,,,,,
2153,Davenport,United States,41.5563,-90.6052,,,,,,
2154,Fukushima,Japan,37.7608,140.4733,,,,,,
2155,Barinas,Venezuela,8.615,-70.1985,,,,,,
2156,Coro,Venezuela,11.395,-69.6816,,,,,,
2157,Bago,Myanmar,17.3433,96.4981,,,,,,
2158,Fuquan,China,26.7039,107.5087,,,,,,
2159,Tongchuanshi,China,35.08,109.03,,,,,,
2160,Āīzawl,India,23.7104,92.72,,,,,,
2161,Santa Maria,Brazil,-29.6839,-53.8069,,,,,,
2162,Taboão da Serra,Brazil,-23.6019,-46.7528,,,,,,
2163,Marabá,Brazil,-5.3689,-49.1178,,,,,,
2164,Sannai,India,24.16,80.83,,,,,,
2165,Huozhou,China,36.5726,111.7176,,,,,,
2166,Temuco,Chile,-38.7399,-72.5901,,,,,,
2167,Sterlitamak,Russia,53.6333,55.95,,,,,,
2168,Rockford,United States,42.2597,-89.0641,,,,,,
2169,Tegal,Indonesia,-6.8667,109.1333,,,,,,
2171,Newark,United States,40.7245,-74.1725,,,,,,
2173,Chuncheon,"Korea, South",37.8747,127.7342,,,,,,
2174,Malārd,Iran,35.6658,50.9767,,,,,,
2175,Pematangsiantar,Indonesia,2.96,99.06,,,,,,
2176,Long Xuyên,Vietnam,10.3686,105.4234,,,,,,
2177,Petrozavodsk,Russia,61.7833,34.35,,,,,,
2178,South Bend,United States,41.6767,-86.2696,,,,,,
2179,Mingaora,Pakistan,34.7717,72.36,,,,,,
2180,San Pedro Carchá,Guatemala,15.4768,-90.312,,,,,,
2181,Bārāsat,India,22.2333,88.45,,,,,,
2182,Shreveport,United States,32.4656,-93.7956,,,,,,
2183,Sumbe,Angola,-11.2052,13.8417,,,,,,
2184,Việt Trì,Vietnam,21.3136,105.3947,,,,,,
2185,Cherkasy,Ukraine,49.4444,32.0597,,,,,,
2186,Caála,Angola,-12.85,15.55,,,,,,
2187,Wiesbaden,Germany,50.0825,8.24,,,,,,
2188,Kostroma,Russia,57.7667,40.9333,,,,,,
2189,Round Lake Beach,United States,42.379,-88.0811,,,,,,
2190,Gyeongsan,"Korea, South",35.8167,128.7333,,,,,,
2191,Governador Valadares,Brazil,-18.8508,-41.9489,,,,,,
2192,Katowice,Poland,50.25,19.0,,,,,,
2193,Shaowu,China,27.3417,117.4869,,,,,,
2194,Sfax,Tunisia,34.74,10.76,,,,,,
2195,Nizhnevartovsk,Russia,60.9389,76.595,,,,,,
2196,Linxia Chengguanzhen,China,35.6,103.2167,,,,,,
2197,Pachuca,Mexico,20.1,-98.75,,,,,,
2198,Juazeiro do Norte,Brazil,-7.2128,-39.315,,,,,,
2199,Dire Dawa,Ethiopia,9.5833,41.8667,,,,,,
2200,Khmelnytskyi,Ukraine,49.42,27.0,,,,,,
2204,Posadas,Argentina,-27.3667,-55.8969,,,,,,
2205,Gatineau,Canada,45.4833,-75.65,,,,,,
2206,Windsor,Canada,42.2833,-83.0,,,,,,
2207,Myrtle Beach,United States,33.7096,-78.8843,,,,,,
2208,Mbandaka,Congo (Kinshasa),0.0486,18.2603,,,,,,
2209,Tehuacán,Mexico,18.4617,-97.3928,,,,,,
2210,La Guaira,Venezuela,10.6,-66.9331,,,,,,
2211,Kunsan,"Korea, South",35.9786,126.7114,,,,,,
2212,Chula Vista,United States,32.6281,-117.0145,,,,,,
2213,Ratlām,India,23.3167,75.0667,,,,,,
2216,Derby,United Kingdom,52.9167,-1.4667,,,,,,
2218,Kafr ad Dawwār,Egypt,31.1417,30.1272,,,,,,
2220,Gijón,Spain,43.5333,-5.7,,,,,,
2221,Bijiao,China,22.9311,113.2018,,,,,,
2222,Chiayi,Taiwan,23.48,120.4497,,,,,,
2223,Palmas,Brazil,-10.2128,-48.3603,,,,,,
2224,Craiova,Romania,44.3333,23.8167,,,,,,
2225,Sorong,Indonesia,-0.8667,131.25,,,,,,
2226,Majene,Indonesia,-3.5336,118.966,,,,,,
2227,Bukhara,Uzbekistan,39.7747,64.4286,,,,,,
2228,Aomori,Japan,40.8222,140.7475,,,,,,
2229,Thái Bình,Vietnam,20.4461,106.3422,,,,,,
2230,Minato,Japan,35.6581,139.7514,,,,,,
2231,Binjai,Indonesia,3.6,98.4853,,,,,,
2232,Fuchū,Japan,35.6689,139.4778,,,,,,
2233,Oral,Kazakhstan,51.2333,51.3667,,,,,,
2234,Brāhmanbāria,Bangladesh,23.9667,91.1,,,,,,
2235,Sartā,Iran,36.5504,53.1,,,,,,
2236,Imphāl,India,24.82,93.95,,,,,,
2237,Plymouth,United Kingdom,50.3714,-4.1422,,,,,,
2238,Santo Domingo de los Colorados,Ecuador,-0.2542,-79.1719,,,,,,
2239,Novorossiysk,Russia,44.7167,37.7667,,,,,,
2241,Zhytomyr,Ukraine,50.2544,28.6578,,,,,,
2242,Villa Altagracia,Dominican Republic,18.67,-70.17,,,,,,
2243,Gombe,Nigeria,10.2904,11.17,,,,,,
2244,Mito,Japan,36.3667,140.4667,,,,,,
2245,Espoo,Finland,60.21,24.66,,,,,,
2246,Drug,India,21.19,81.28,,,,,,
2247,Floridablanca,Colombia,7.0697,-73.0978,,,,,,
2248,Bamenda,Cameroon,5.9333,10.1667,,,,,,
2249,Handwāra,India,34.4,74.28,,,,,,
2250,Lucena,Philippines,13.9333,121.6167,,,,,,
2251,Canton,United States,40.8075,-81.3677,,,,,,
2252,Yoshkar-Ola,Russia,56.6328,47.8958,,,,,,
2253,Parnamirim,Brazil,-5.9158,-35.2628,,,,,,
2254,Nalchik,Russia,43.4833,43.6167,,,,,,
2255,Ichihara,Japan,35.4981,140.1156,,,,,,
2256,Aswān,Egypt,24.0889,32.8997,,,,,,
2257,Salamanca,Mexico,20.5703,-101.1972,,,,,,
2258,İnegöl,Turkey,40.0806,29.5097,,,,,,
2259,Chernivtsi,Ukraine,48.2908,25.9344,,,,,,
2260,Sumaré,Brazil,-22.8219,-47.2669,,,,,,
2261,Lubbock,United States,33.5659,-101.8878,,,,,,
2262,Yanbu‘,Saudi Arabia,24.0943,38.0493,,,,,,
2263,Sumy,Ukraine,50.9068,34.7992,,,,,,
2264,Tshikapa,Congo (Kinshasa),-6.4167,20.8,,,,,,
2265,Anantapur,India,14.6833,77.6,,,,,,
2266,San Pablo,Philippines,14.07,121.325,,,,,,
2268,Winter Haven,United States,28.0118,-81.7017,,,,,,
2269,Ipatinga,Brazil,-19.4678,-42.5369,,,,,,
2270,Myeik,Myanmar,12.4394,98.6003,,,,,,
2271,Kütahya,Turkey,39.4242,29.9833,,,,,,
2273,Djelfa,Algeria,34.6667,3.25,,,,,,
2274,Suncheon,"Korea, South",34.9506,127.4875,,,,,,
2275,Graz,Austria,47.0749,15.4409,,,,,,
2277,Engels,Russia,51.4667,46.1167,,,,,,
2278,Kindu,Congo (Kinshasa),-2.95,25.9167,,,,,,
2279,Oruro,Bolivia,-17.9667,-67.1167,,,,,,
2280,Dezfūl,Iran,32.3878,48.4033,,,,,,
2281,Osmaniye,Turkey,37.075,36.25,,,,,,
2282,Lafayette,United States,30.2084,-92.0323,,,,,,
2283,Kyŏngju,"Korea, South",35.85,129.2167,,,,,,
2284,Dumai,Indonesia,1.6667,101.45,,,,,,
2286,San Lorenzo,Paraguay,-25.3431,-57.5094,,,,,,
2287,Geelong,Australia,-38.15,144.35,,,,,,
2288,Çorlu,Turkey,41.1597,27.8028,,,,,,
2289,Nawabshah,Pakistan,26.2442,68.41,,,,,,
2290,Gelsenkirchen,Germany,51.5167,7.1,,,,,,
2291,Bordeaux,France,44.84,-0.58,,,,,,
2292,Mönchengladbach,Germany,51.2,6.4333,,,,,,
2293,Volta Redonda,Brazil,-22.5231,-44.1042,,,,,,
2294,Matala,Angola,-14.7306,15.0367,,,,,,
2295,Annaba,Algeria,36.9,7.7667,,,,,,
2296,Barueri,Brazil,-23.5111,-46.8764,,,,,,
2297,Laredo,United States,27.5629,-99.4875,,,,,,
2298,Nonthaburi,Thailand,13.8667,100.5167,,,,,,
2299,Jersey City,United States,40.7161,-74.0682,,,,,,
2300,Venice,Italy,45.4397,12.3319,,,,,,
2301,Quảng Ngãi,Vietnam,15.1206,108.7922,,,,,,
2303,Damanhūr,Egypt,31.05,30.4667,,,,,,
2304,Ciudad Benito Juárez,Mexico,25.65,-100.0833,,,,,,
2305,Cascavel,Brazil,-24.9558,-53.4553,,,,,,
2306,Hiratsuka,Japan,35.3231,139.3422,,,,,,
2308,Chandler,United States,33.2826,-111.8516,,,,,,
2309,Sakarya,Turkey,40.7778,30.4028,,,,,,
2310,Tagum,Philippines,7.4478,125.8078,,,,,,
2311,Fukui,Japan,36.0641,136.2196,,,,,,
2312,Sōka,Japan,35.8256,139.8056,,,,,,
2313,Kunduz,Afghanistan,36.728,68.8725,,,,,,
2314,Ciudad Santa Catarina,Mexico,25.6833,-100.45,,,,,,
2315,Los Mochis,Mexico,25.7835,-108.9937,,,,,,
2316,Imperatriz,Brazil,-5.5258,-47.4758,,,,,,
2317,Texcoco,Mexico,19.52,-98.88,,,,,,
2319,Mişrātah,Libya,32.3778,15.0901,,,,,,
2320,Isparta,Turkey,37.7667,30.55,,,,,,
2321,Foz do Iguaçu,Brazil,-25.54,-54.5875,,,,,,
2322,Verona,Italy,45.4386,10.9928,,,,,,
2323,Huayin,China,34.5664,110.0866,,,,,,
2324,Etāwah,India,26.7855,79.015,,,,,,
2325,McKinney,United States,33.2015,-96.6669,,,,,,
2326,Playa del Carmen,Mexico,20.6275,-87.0811,,,,,,
2327,Scottsdale,United States,33.6872,-111.8651,,,,,,
2328,Wolverhampton,United Kingdom,52.5833,-2.1333,,,,,,
2329,Killeen,United States,31.0754,-97.7296,,,,,,
2330,Bergen,Norway,60.3925,5.3233,,,,,,
2331,Tallahassee,United States,30.4551,-84.2526,,,,,,
2332,Horlivka,Ukraine,48.3336,38.0925,,,,,,
2333,Antsirabe,Madagascar,-19.8667,47.0333,,,,,,
2334,Ondo,Nigeria,7.0904,4.84,,,,,,
2335,San Mateo,Philippines,14.6969,121.1219,,,,,,
2336,Ấp Đa Lợi,Vietnam,11.9304,108.42,,,,,,
2337,Viamão,Brazil,-30.0808,-51.0228,,,,,,
2338,Peoria,United States,40.752,-89.6153,,,,,,
2339,Gravataí,Brazil,-29.9433,-50.9939,,,,,,
2340,Kediri,Indonesia,-7.8166,112.0119,,,,,,
2341,Damaturu,Nigeria,11.75,11.9667,,,,,,
2342,Tokushima,Japan,34.0667,134.55,,,,,,
2343,Malolos,Philippines,14.8433,120.8114,,,,,,
2345,Wilmington,United States,34.21,-77.8866,,,,,,
2346,Rāichūr,India,16.2104,77.355,,,,,,
2347,Mawlamyine,Myanmar,16.4847,97.6258,,,,,,
2348,Turmero,Venezuela,10.2283,-67.4753,,,,,,
2349,Kuala Terengganu,Malaysia,5.3303,103.1408,,,,,,
2350,Daloa,Côte D’Ivoire,6.89,-6.45,,,,,,
2351,Puerto Princesa,Philippines,9.75,118.75,,,,,,
2352,Moçâmedes,Angola,-15.1953,12.1508,,,,,,
2353,Vitoria-Gasteiz,Spain,42.85,-2.6833,,,,,,
2354,Qarshi,Uzbekistan,38.8667,65.8,,,,,,
2355,Montgomery,United States,32.3473,-86.2666,,,,,,
2357,Rishon LeẔiyyon,Israel,31.95,34.8,,,,,,
2358,Ongole,India,15.5,80.05,,,,,,
2359,Arua,Uganda,3.03,30.91,,,,,,
2360,Bharatpur,India,27.2172,77.49,,,,,,
2361,Shinozaki,Japan,33.95,130.9333,,,,,,
2362,Goma,Congo (Kinshasa),-1.6794,29.2336,,,,,,
2363,Rạch Giá,Vietnam,10.0125,105.0808,,,,,,
2364,Kanggye,"Korea, North",40.9667,126.6,,,,,,
2365,Taganrog,Russia,47.2333,38.9,,,,,,
2366,Kızıltepe,Turkey,37.1939,40.5861,,,,,,
2367,El Fasher,Sudan,13.63,25.35,,,,,,
2368,Várzea Grande,Brazil,-15.65,-56.14,,,,,,
2369,Las Condes,Chile,-33.4167,-70.5833,,,,,,
2370,Glendale,United States,33.5791,-112.2311,,,,,,
2371,Santiago del Estero,Argentina,-27.7844,-64.2669,,,,,,
2372,Hakodate,Japan,41.7733,140.7261,,,,,,
2373,Uşak,Turkey,38.6833,29.4,,,,,,
2374,Begusarai,India,25.42,86.13,,,,,,
2375,North Las Vegas,United States,36.288,-115.0901,,,,,,
2376,Sonīpat,India,28.9958,77.0114,,,,,,
2377,Los Teques,Venezuela,10.3411,-67.0406,,,,,,
2378,Mabalacat,Philippines,15.2167,120.5833,,,,,,
2379,Jinshi,China,29.6334,111.8746,,,,,,
2380,Chōfugaoka,Japan,35.6506,139.5408,,,,,,
2383,Bata,Equatorial Guinea,1.865,9.77,,,,,,
2384,Komsomol’sk-na-Amure,Russia,50.55,137.0,,,,,,
2385,Bābol,Iran,36.55,52.6833,,,,,,
2386,Galaţi,Romania,45.4233,28.0425,,,,,,
2387,Al Bayḑā’,Libya,32.7628,21.755,,,,,,
2388,Kurmuk,Sudan,10.5563,34.2848,,,,,,
2389,Manzhouli,China,49.5881,117.4525,,,,,,
2390,Braunschweig,Germany,52.2692,10.5211,,,,,,
2391,Rivne,Ukraine,50.6197,26.2514,,,,,,
2392,Gdynia,Poland,54.5189,18.5319,,,,,,
2393,Soyapango,El Salvador,13.7472,-89.1639,,,,,,
2394,Palangkaraya,Indonesia,-2.21,113.92,,,,,,
2395,Silang,Philippines,14.2306,120.975,,,,,,
2396,Al Minyā,Egypt,28.0833,30.75,,,,,,
2397,Ḩafr al Bāţin,Saudi Arabia,28.4337,45.9601,,,,,,
2398,Chigasaki,Japan,35.3339,139.4047,,,,,,
2399,Būkān,Iran,36.5208,46.2117,,,,,,
2400,Aachen,Germany,50.7762,6.0838,,,,,,
2401,Kiel,Germany,54.3233,10.1394,,,,,,
2402,Sahiwal,Pakistan,30.6706,73.1064,,,,,,
2403,Thủ Dầu Một,Vietnam,11.0042,106.6583,,,,,,
2404,Novo Hamburgo,Brazil,-29.6778,-51.1308,,,,,,
2405,Sibu,Malaysia,2.3,111.8167,,,,,,
2406,Yato,Japan,35.4693,139.4616,,,,,,
2407,Paraná,Argentina,-31.7444,-60.5175,,,,,,
2408,Yamagata,Japan,38.25,140.3333,,,,,,
2410,Tsukuba-kenkyūgakuen-toshi,Japan,36.0333,140.0667,,,,,,
2411,Merlo,Argentina,-34.6653,-58.7275,,,,,,
2412,Magé,Brazil,-22.6528,-43.0408,,,,,,
2413,Syktyvkar,Russia,61.6667,50.8167,,,,,,
2414,Khimki,Russia,55.8892,37.445,,,,,,
2415,Birāṭnagar,Nepal,26.4833,87.2833,,,,,,
